{
"type": "FeatureCollection",
"crs": { "type": "name", "properties": { "name": "urn:ogc:def:crs:OGC:1.3:CRS84" } },
"features": [
{ "type": "Feature", "properties": { "Location": "3-6-761,HIMAYATHNAGAR, Amberpet, Hyderabad, Telangana, India", "Latitude": 17.4014826, "Longitude": 78.4942006 }, "geometry": { "type": "Point", "coordinates": [ 78.4942006, 17.4014826 ] } },
{ "type": "Feature", "properties": { "Location": "1-2-426, DOMALAGUDA, Amberpet, Hyderabad, Telangana, India", "Latitude": 17.407797, "Longitude": 78.48709 }, "geometry": { "type": "Point", "coordinates": [ 78.48709, 17.407797 ] } },
{ "type": "Feature", "properties": { "Location": "1-2-382\/E, DOMALAGUDA, Amberpet, Hyderabad, Telangana, India", "Latitude": 17.407797, "Longitude": 78.48709 }, "geometry": { "type": "Point", "coordinates": [ 78.48709, 17.407797 ] } },
{ "type": "Feature", "properties": { "Location": "1-2-361\/3, DOMALAGUDA, Amberpet, Hyderabad, Telangana, India", "Latitude": 17.3977596, "Longitude": 78.5139068 }, "geometry": { "type": "Point", "coordinates": [ 78.5139068, 17.3977596 ] } },
{ "type": "Feature", "properties": { "Location": "1-2-152 DOMALGUDA, Amberpet, Hyderabad, Telangana, India", "Latitude": 17.407797, "Longitude": 78.48709 }, "geometry": { "type": "Point", "coordinates": [ 78.48709, 17.407797 ] } },
{ "type": "Feature", "properties": { "Location": "1-2-361\/15 DOMALGUDA, Amberpet, Hyderabad, Telangana, India", "Latitude": 17.4093433, "Longitude": 78.4819903 }, "geometry": { "type": "Point", "coordinates": [ 78.4819903, 17.4093433 ] } },
{ "type": "Feature", "properties": { "Location": "1-2-606\/95 BANDA MAISAMMA NAGAR, Amberpet, Hyderabad, Telangana, India", "Latitude": 17.4307964, "Longitude": 78.4958024 }, "geometry": { "type": "Point", "coordinates": [ 78.4958024, 17.4307964 ] } },
{ "type": "Feature", "properties": { "Location": "1-10-191\/A\/1 ASHOK NAGAR, Amberpet, Hyderabad, Telangana, India", "Latitude": 17.404724, "Longitude": 78.48879 }, "geometry": { "type": "Point", "coordinates": [ 78.48879, 17.404724 ] } },
{ "type": "Feature", "properties": { "Location": "1-10-22\/3\/C ASHOK NAGAR, Amberpet, Hyderabad, Telangana, India", "Latitude": 17.463856, "Longitude": 78.451357 }, "geometry": { "type": "Point", "coordinates": [ 78.451357, 17.463856 ] } },
{ "type": "Feature", "properties": { "Location": "2-3-645 PREM NAGAR, Amberpet, Hyderabad, Telangana, India", "Latitude": 17.3864301, "Longitude": 78.5156101 }, "geometry": { "type": "Point", "coordinates": [ 78.5156101, 17.3864301 ] } },
{ "type": "Feature", "properties": { "Location": "1-1-336\/1 CHIKKADPALLY, Amberpet, Hyderabad, Telangana, India", "Latitude": 17.4044408, "Longitude": 78.4933788 }, "geometry": { "type": "Point", "coordinates": [ 78.4933788, 17.4044408 ] } },
{ "type": "Feature", "properties": { "Location": "1-1-230\/2\/5 CHIKKADPALLY, Amberpet, Hyderabad, Telangana, India", "Latitude": 17.4008168, "Longitude": 78.4981031 }, "geometry": { "type": "Point", "coordinates": [ 78.4981031, 17.4008168 ] } },
{ "type": "Feature", "properties": { "Location": "1-1-364\/22 RTC X ROADS, Amberpet, Hyderabad, Telangana, India", "Latitude": 17.406855, "Longitude": 78.498501 }, "geometry": { "type": "Point", "coordinates": [ 78.498501, 17.406855 ] } },
{ "type": "Feature", "properties": { "Location": "1-1-592\/F GANDHI NAGAR, Amberpet, Hyderabad, Telangana, India", "Latitude": 17.4115382, "Longitude": 78.4953384 }, "geometry": { "type": "Point", "coordinates": [ 78.4953384, 17.4115382 ] } },
{ "type": "Feature", "properties": { "Location": "SRT-191 JAWAHAR NAGAR, Amberpet, Hyderabad, Telangana, India", "Latitude": 17.454767, "Longitude": 78.4460824 }, "geometry": { "type": "Point", "coordinates": [ 78.4460824, 17.454767 ] } },
{ "type": "Feature", "properties": { "Location": "1-7-398\/2, BAKARAM, Amberpet, Hyderabad, Telangana, India", "Latitude": 17.4150655, "Longitude": 78.4937145 }, "geometry": { "type": "Point", "coordinates": [ 78.4937145, 17.4150655 ] } },
{ "type": "Feature", "properties": { "Location": "1-7-268\/1 BAKARAM, Amberpet, Hyderabad, Telangana, India", "Latitude": 17.4176755, "Longitude": 78.4926118 }, "geometry": { "type": "Point", "coordinates": [ 78.4926118, 17.4176755 ] } },
{ "type": "Feature", "properties": { "Location": "1-7-1022\/8\/13\/A, GEMINI COLONY, Amberpet, Hyderabad, Telangana, India", "Latitude": 17.3985773, "Longitude": 78.5035525 }, "geometry": { "type": "Point", "coordinates": [ 78.5035525, 17.3985773 ] } },
{ "type": "Feature", "properties": { "Location": "1-7-510\/2\/1 HARINAGAR, Amberpet, Hyderabad, Telangana, India", "Latitude": 17.4129257, "Longitude": 78.5017841 }, "geometry": { "type": "Point", "coordinates": [ 78.5017841, 17.4129257 ] } },
{ "type": "Feature", "properties": { "Location": "1-7-572\/B\/2 ZAMISTANPUR, Amberpet, Hyderabad, Telangana, India", "Latitude": 17.4146645, "Longitude": 78.4992791 }, "geometry": { "type": "Point", "coordinates": [ 78.4992791, 17.4146645 ] } },
{ "type": "Feature", "properties": { "Location": "1-7-578, RAMNAGAR, Amberpet, Hyderabad, Telangana, India", "Latitude": 17.4155029, "Longitude": 78.5066751 }, "geometry": { "type": "Point", "coordinates": [ 78.5066751, 17.4155029 ] } },
{ "type": "Feature", "properties": { "Location": "1-7-578\/8\/2 RAMNAGAR, Amberpet, Hyderabad, Telangana, India", "Latitude": 17.4124615, "Longitude": 78.5041095 }, "geometry": { "type": "Point", "coordinates": [ 78.5041095, 17.4124615 ] } },
{ "type": "Feature", "properties": { "Location": "1-9-129\/23, RAM NAGAR, Amberpet, Hyderabad, Telangana, India", "Latitude": 17.4089171, "Longitude": 78.5082906 }, "geometry": { "type": "Point", "coordinates": [ 78.5082906, 17.4089171 ] } },
{ "type": "Feature", "properties": { "Location": "1-9-135, RAM NAGAR, Amberpet, Hyderabad, Telangana, India", "Latitude": 17.4089171, "Longitude": 78.5082906 }, "geometry": { "type": "Point", "coordinates": [ 78.5082906, 17.4089171 ] } },
{ "type": "Feature", "properties": { "Location": "1-9-9\/2\/4 RAMNAGAR, Amberpet, Hyderabad, Telangana, India", "Latitude": 17.4124615, "Longitude": 78.5041095 }, "geometry": { "type": "Point", "coordinates": [ 78.5041095, 17.4124615 ] } },
{ "type": "Feature", "properties": { "Location": "1-9-129\/16\/1\/B\/3\/A, RAM NAGAR, Amberpet, Hyderabad, Telangana, India", "Latitude": 17.4125847, "Longitude": 78.5053248 }, "geometry": { "type": "Point", "coordinates": [ 78.5053248, 17.4125847 ] } },
{ "type": "Feature", "properties": { "Location": "1-9-53\/16\/A, RAMNAGAR, Amberpet, Hyderabad, Telangana, India", "Latitude": 17.4142569, "Longitude": 78.508014 }, "geometry": { "type": "Point", "coordinates": [ 78.508014, 17.4142569 ] } },
{ "type": "Feature", "properties": { "Location": "1-9-267\/1 MUSHEERABAD, Amberpet, Hyderabad, Telangana, India", "Latitude": 17.407892, "Longitude": 78.505538 }, "geometry": { "type": "Point", "coordinates": [ 78.505538, 17.407892 ] } },
{ "type": "Feature", "properties": { "Location": "1-9-754 ADIKMET, Amberpet, Hyderabad, Telangana, India", "Latitude": 17.4090391, "Longitude": 78.5162103 }, "geometry": { "type": "Point", "coordinates": [ 78.5162103, 17.4090391 ] } },
{ "type": "Feature", "properties": { "Location": "1-9-295\/6 VIDYANAGAR, Amberpet, Hyderabad, Telangana, India", "Latitude": 17.4065284, "Longitude": 78.5139136 }, "geometry": { "type": "Point", "coordinates": [ 78.5139136, 17.4065284 ] } },
{ "type": "Feature", "properties": { "Location": "1-9-295\/28 VIDYANAGAR, Amberpet, Hyderabad, Telangana, India", "Latitude": 17.4099915, "Longitude": 78.5153284 }, "geometry": { "type": "Point", "coordinates": [ 78.5153284, 17.4099915 ] } },
{ "type": "Feature", "properties": { "Location": "1-8-518\/16\/1 CHIKADPALLY, Amberpet, Hyderabad, Telangana, India", "Latitude": 17.4060388, "Longitude": 78.4989464 }, "geometry": { "type": "Point", "coordinates": [ 78.4989464, 17.4060388 ] } },
{ "type": "Feature", "properties": { "Location": "1-8-497\/4 CHIKKADPALLY, Amberpet, Hyderabad, Telangana, India", "Latitude": 17.4009377, "Longitude": 78.4965043 }, "geometry": { "type": "Point", "coordinates": [ 78.4965043, 17.4009377 ] } },
{ "type": "Feature", "properties": { "Location": "1-8-156\/1 CHIKKADPALLY, Amberpet, Hyderabad, Telangana, India", "Latitude": 17.3997277, "Longitude": 78.4966402 }, "geometry": { "type": "Point", "coordinates": [ 78.4966402, 17.3997277 ] } },
{ "type": "Feature", "properties": { "Location": "EWS, 300,BAGH LINGAM PALLY, Amberpet, Hyderabad, Telangana, India", "Latitude": 17.3981907, "Longitude": 78.4993452 }, "geometry": { "type": "Point", "coordinates": [ 78.4993452, 17.3981907 ] } },
{ "type": "Feature", "properties": { "Location": "2-3-603\/49\/50\/51, PATEL NAGAR, Amberpet, Hyderabad, Telangana, India", "Latitude": 17.382069, "Longitude": 78.528726 }, "geometry": { "type": "Point", "coordinates": [ 78.528726, 17.382069 ] } },
{ "type": "Feature", "properties": { "Location": "1-8-607\/6 CHIKKADPALLY, Amberpet, Hyderabad, Telangana, India", "Latitude": 17.4009377, "Longitude": 78.4965043 }, "geometry": { "type": "Point", "coordinates": [ 78.4965043, 17.4009377 ] } },
{ "type": "Feature", "properties": { "Location": "2-1-563\/2\/1, NALLA KUNTA, Amberpet, Hyderabad, Telangana, India", "Latitude": 17.399614, "Longitude": 78.513096 }, "geometry": { "type": "Point", "coordinates": [ 78.513096, 17.399614 ] } },
{ "type": "Feature", "properties": { "Location": "2-1-513\/8\/B, NALLAKUNTA, Amberpet, Hyderabad, Telangana, India", "Latitude": 17.3974673, "Longitude": 78.5011228 }, "geometry": { "type": "Point", "coordinates": [ 78.5011228, 17.3974673 ] } },
{ "type": "Feature", "properties": { "Location": "2-2-1118\/3\/6, NALLAKUNTA, Amberpet, Hyderabad, Telangana, India", "Latitude": 17.3977596, "Longitude": 78.5139068 }, "geometry": { "type": "Point", "coordinates": [ 78.5139068, 17.3977596 ] } },
{ "type": "Feature", "properties": { "Location": "2-2-1167\/A\/62 NALLAKUNTA, Amberpet, Hyderabad, Telangana, India", "Latitude": 17.397804, "Longitude": 78.5083492 }, "geometry": { "type": "Point", "coordinates": [ 78.5083492, 17.397804 ] } },
{ "type": "Feature", "properties": { "Location": "2-21137\/5\/G, NALLAKUNTA, Amberpet, Hyderabad, Telangana, India", "Latitude": 17.3957227, "Longitude": 78.5095715 }, "geometry": { "type": "Point", "coordinates": [ 78.5095715, 17.3957227 ] } },
{ "type": "Feature", "properties": { "Location": "2-2-1104\/A, NEW INDIRA NAGAR, Amberpet, Hyderabad, Telangana, India", "Latitude": 17.3822759, "Longitude": 78.4537824 }, "geometry": { "type": "Point", "coordinates": [ 78.4537824, 17.3822759 ] } },
{ "type": "Feature", "properties": { "Location": "2-3-18\/5\/1,TULSINAGAR, Amberpet, Hyderabad, Telangana, India", "Latitude": 17.4549329, "Longitude": 78.4089287 }, "geometry": { "type": "Point", "coordinates": [ 78.4089287, 17.4549329 ] } },
{ "type": "Feature", "properties": { "Location": "2-3-19\/8\/2\/1 TULSINAGAR, Amberpet, Hyderabad, Telangana, India", "Latitude": 17.3909045, "Longitude": 78.5092558 }, "geometry": { "type": "Point", "coordinates": [ 78.5092558, 17.3909045 ] } },
{ "type": "Feature", "properties": { "Location": "2-2-1075\/31\/1\/A BATHUKAMMAKUNTA, Amberpet, Hyderabad, Telangana, India", "Latitude": 17.3931472, "Longitude": 78.5127751 }, "geometry": { "type": "Point", "coordinates": [ 78.5127751, 17.3931472 ] } },
{ "type": "Feature", "properties": { "Location": "2-3-48\/2\/1 QUADRI BAGH, Amberpet, Hyderabad, Telangana, India", "Latitude": 17.38756, "Longitude": 78.51276 }, "geometry": { "type": "Point", "coordinates": [ 78.51276, 17.38756 ] } },
{ "type": "Feature", "properties": { "Location": "2-2-1043, AMBERPET, Amberpet, Hyderabad, Telangana, India", "Latitude": 17.3981321, "Longitude": 78.5145261 }, "geometry": { "type": "Point", "coordinates": [ 78.5145261, 17.3981321 ] } },
{ "type": "Feature", "properties": { "Location": "2-2-735\/B POCHAMMABASTI, Amberpet, Hyderabad, Telangana, India", "Latitude": 17.3926861, "Longitude": 78.5143176 }, "geometry": { "type": "Point", "coordinates": [ 78.5143176, 17.3926861 ] } },
{ "type": "Feature", "properties": { "Location": "2-2-730\/12 AMBERPET, Amberpet, Hyderabad, Telangana, India", "Latitude": 17.3962851, "Longitude": 78.5181135 }, "geometry": { "type": "Point", "coordinates": [ 78.5181135, 17.3962851 ] } },
{ "type": "Feature", "properties": { "Location": "2-2-1109\/80\/C AMBERPET, Amberpet, Hyderabad, Telangana, India", "Latitude": 17.3981321, "Longitude": 78.5145261 }, "geometry": { "type": "Point", "coordinates": [ 78.5145261, 17.3981321 ] } },
{ "type": "Feature", "properties": { "Location": "2-2-647\/187\/1 BAGHAMBERPET, Amberpet, Hyderabad, Telangana, India", "Latitude": 17.4002594, "Longitude": 78.5145154 }, "geometry": { "type": "Point", "coordinates": [ 78.5145154, 17.4002594 ] } },
{ "type": "Feature", "properties": { "Location": "2-2-642\/3, AMBERPET, Amberpet, Hyderabad, Telangana, India", "Latitude": 17.3977596, "Longitude": 78.5139068 }, "geometry": { "type": "Point", "coordinates": [ 78.5139068, 17.3977596 ] } },
{ "type": "Feature", "properties": { "Location": "2-2-186\/17\/C\/2\/F AMBERPET, Amberpet, Hyderabad, Telangana, India", "Latitude": 17.395995, "Longitude": 78.516653 }, "geometry": { "type": "Point", "coordinates": [ 78.516653, 17.395995 ] } },
{ "type": "Feature", "properties": { "Location": "2-3-647\/A\/352\/A PATELNAGAR, Amberpet, Hyderabad, Telangana, India", "Latitude": 17.3801404, "Longitude": 78.5270405 }, "geometry": { "type": "Point", "coordinates": [ 78.5270405, 17.3801404 ] } },
{ "type": "Feature", "properties": { "Location": "2-2-92\/B\/12, AMBERPET, Amberpet, Hyderabad, Telangana, India", "Latitude": 17.3962851, "Longitude": 78.5181135 }, "geometry": { "type": "Point", "coordinates": [ 78.5181135, 17.3962851 ] } },
{ "type": "Feature", "properties": { "Location": "2-3-528\/C\/1 AMBERPET, Amberpet, Hyderabad, Telangana, India", "Latitude": 17.394737, "Longitude": 78.527634 }, "geometry": { "type": "Point", "coordinates": [ 78.527634, 17.394737 ] } },
{ "type": "Feature", "properties": { "Location": "2-3-703\/A\/B\/64 AMBERPET, Amberpet, Hyderabad, Telangana, India", "Latitude": 17.3922901, "Longitude": 78.5178399 }, "geometry": { "type": "Point", "coordinates": [ 78.5178399, 17.3922901 ] } },
{ "type": "Feature", "properties": { "Location": "2-3-733\/A\/2 ZINDATELASMATH, Amberpet, Hyderabad, Telangana, India", "Latitude": 17.3922901, "Longitude": 78.5178399 }, "geometry": { "type": "Point", "coordinates": [ 78.5178399, 17.3922901 ] } },
{ "type": "Feature", "properties": { "Location": "2-3-703\/B\/1\/1, TIRUMALA NAGAR, Amberpet, Hyderabad, Telangana, India", "Latitude": 17.3884568, "Longitude": 78.5158993 }, "geometry": { "type": "Point", "coordinates": [ 78.5158993, 17.3884568 ] } },
{ "type": "Feature", "properties": { "Location": "2-1-190 VIDYANAGAR, Amberpet, Hyderabad, Telangana, India", "Latitude": 17.4052004, "Longitude": 78.5135862 }, "geometry": { "type": "Point", "coordinates": [ 78.5135862, 17.4052004 ] } },
{ "type": "Feature", "properties": { "Location": "2-3-603\/49\/115 PATELNAGAR, Amberpet, Hyderabad, Telangana, India", "Latitude": 17.3801404, "Longitude": 78.5270405 }, "geometry": { "type": "Point", "coordinates": [ 78.5270405, 17.3801404 ] } },
{ "type": "Feature", "properties": { "Location": "2-3-64\/1\/1\/E\/B, KHADRIBAGH, Amberpet, Hyderabad, Telangana, India", "Latitude": 17.3895771, "Longitude": 78.429541 }, "geometry": { "type": "Point", "coordinates": [ 78.429541, 17.3895771 ] } },
{ "type": "Feature", "properties": { "Location": "2-3-512\/A\/40, CHENNAREDDYNAGAR, Amberpet, Hyderabad, Telangana, India", "Latitude": 17.3923289, "Longitude": 78.5265467 }, "geometry": { "type": "Point", "coordinates": [ 78.5265467, 17.3923289 ] } },
{ "type": "Feature", "properties": { "Location": "2-2-1103\/9\/93 GOLNAKA, Amberpet, Hyderabad, Telangana, India", "Latitude": 17.3910939, "Longitude": 78.5103752 }, "geometry": { "type": "Point", "coordinates": [ 78.5103752, 17.3910939 ] } },
{ "type": "Feature", "properties": { "Location": "2-3-647\/A\/109 PREMNAGAR, Amberpet, Hyderabad, Telangana, India", "Latitude": 17.481017, "Longitude": 78.3585754 }, "geometry": { "type": "Point", "coordinates": [ 78.3585754, 17.481017 ] } },
{ "type": "Feature", "properties": { "Location": "2-3-603\/50\/36 PATELNAGAR, Amberpet, Hyderabad, Telangana, India", "Latitude": 17.3912064, "Longitude": 78.5114088 }, "geometry": { "type": "Point", "coordinates": [ 78.5114088, 17.3912064 ] } },
{ "type": "Feature", "properties": { "Location": "2-2-185\/38\/B, MALIIKARJUNA NAGAR, Amberpet, Hyderabad, Telangana, India", "Latitude": 17.396242, "Longitude": 78.523978 }, "geometry": { "type": "Point", "coordinates": [ 78.523978, 17.396242 ] } },
{ "type": "Feature", "properties": { "Location": "2-2-647\/234\/2 BAGH AMBERPET, Amberpet, Hyderabad, Telangana, India", "Latitude": 17.39178, "Longitude": 78.511443 }, "geometry": { "type": "Point", "coordinates": [ 78.511443, 17.39178 ] } },
{ "type": "Feature", "properties": { "Location": "2-2-1104\/6\/A TILAKNAGAR, Amberpet, Hyderabad, Telangana, India", "Latitude": 17.3940577, "Longitude": 78.5088942 }, "geometry": { "type": "Point", "coordinates": [ 78.5088942, 17.3940577 ] } },
{ "type": "Feature", "properties": { "Location": "1-8-598\/13 ACHAIAHNAGAR, Amberpet, Hyderabad, Telangana, India", "Latitude": 17.3985615, "Longitude": 78.5036485 }, "geometry": { "type": "Point", "coordinates": [ 78.5036485, 17.3985615 ] } },
{ "type": "Feature", "properties": { "Location": "2-3-603\/50\/A\/165 PATELNAGAR, Amberpet, Hyderabad, Telangana, India", "Latitude": 17.4687959, "Longitude": 78.4238902 }, "geometry": { "type": "Point", "coordinates": [ 78.4238902, 17.4687959 ] } },
{ "type": "Feature", "properties": { "Location": "1-9-19\/40 TRT QRTS RAMNAGAR, Amberpet, Hyderabad, Telangana, India", "Latitude": 17.426058, "Longitude": 78.5174739 }, "geometry": { "type": "Point", "coordinates": [ 78.5174739, 17.426058 ] } },
{ "type": "Feature", "properties": { "Location": "8-2-684\/117\/A ROAD NO.12, KHAMAN, NBT NAGAR, Khairatabad, Hyderabad, Telangana, India", "Latitude": 17.4099134, "Longitude": 78.4301687 }, "geometry": { "type": "Point", "coordinates": [ 78.4301687, 17.4099134 ] } },
{ "type": "Feature", "properties": { "Location": "6-1-586, KHARIATABAD., Khairatabad, Hyderabad, Telangana, India", "Latitude": 17.409767, "Longitude": 78.4600256 }, "geometry": { "type": "Point", "coordinates": [ 78.4600256, 17.409767 ] } },
{ "type": "Feature", "properties": { "Location": "6-1-589, KHAIRATABAD, Khairatabad, Hyderabad, Telangana, India", "Latitude": 17.409767, "Longitude": 78.4600256 }, "geometry": { "type": "Point", "coordinates": [ 78.4600256, 17.409767 ] } },
{ "type": "Feature", "properties": { "Location": "8-2-613\/53, GOURISHANKARNAGAR, B.HILLS, HYD., Khairatabad, Hyderabad, Telangana, India", "Latitude": 17.4138277, "Longitude": 78.4397584 }, "geometry": { "type": "Point", "coordinates": [ 78.4397584, 17.4138277 ] } },
{ "type": "Feature", "properties": { "Location": "6-2-191, ACGUARDS, HYD., Khairatabad, Hyderabad, Telangana, India", "Latitude": 17.3999039, "Longitude": 78.4590307 }, "geometry": { "type": "Point", "coordinates": [ 78.4590307, 17.3999039 ] } },
{ "type": "Feature", "properties": { "Location": "6-2-486, CHINTHALBASTHI, KHAIRATABAD, HYD., Khairatabad, Hyderabad, Telangana, India", "Latitude": 17.4098324, "Longitude": 78.4600132 }, "geometry": { "type": "Point", "coordinates": [ 78.4600132, 17.4098324 ] } },
{ "type": "Feature", "properties": { "Location": "10-1-141\/2, CHINTHALBASTHI, KHAIRATABAD, HYD., Khairatabad, Hyderabad, Telangana, India", "Latitude": 17.408227, "Longitude": 78.4528845 }, "geometry": { "type": "Point", "coordinates": [ 78.4528845, 17.408227 ] } },
{ "type": "Feature", "properties": { "Location": "8-3-299\/6, RAHMATHNAGAR, YOUSUFUGDA, HYD., Khairatabad, Hyderabad, Telangana, India", "Latitude": 17.4398757, "Longitude": 78.4238443 }, "geometry": { "type": "Point", "coordinates": [ 78.4238443, 17.4398757 ] } },
{ "type": "Feature", "properties": { "Location": "6-3-609\/48\/4\/1, ANAND NAGAR COLONY, KHIARATABAD, HYD., Khairatabad, Hyderabad, Telangana, India", "Latitude": 17.4116471, "Longitude": 78.4563491 }, "geometry": { "type": "Point", "coordinates": [ 78.4563491, 17.4116471 ] } },
{ "type": "Feature", "properties": { "Location": "8-3-228\/678\/448, KARMIKANAGAR, YOUSUFGUDA, HYD., Khairatabad, Hyderabad, Telangana, India", "Latitude": 17.4467323, "Longitude": 78.4204789 }, "geometry": { "type": "Point", "coordinates": [ 78.4204789, 17.4467323 ] } },
{ "type": "Feature", "properties": { "Location": "8-4-367\/56, VINAYAKRAONAGAR, BORABANDA, HYD., Khairatabad, Hyderabad, Telangana, India", "Latitude": 17.4565082, "Longitude": 78.4126163 }, "geometry": { "type": "Point", "coordinates": [ 78.4126163, 17.4565082 ] } },
{ "type": "Feature", "properties": { "Location": "8-2-96, PANJAGUTTA, HYDERABAD, Khairatabad, Hyderabad, Telangana, India", "Latitude": 17.4296714, "Longitude": 78.4460675 }, "geometry": { "type": "Point", "coordinates": [ 78.4460675, 17.4296714 ] } },
{ "type": "Feature", "properties": { "Location": "105\/C, VENGALRAO NAGAR, MADHURANAGAR, HYD., Khairatabad, Hyderabad, Telangana, India", "Latitude": 17.441648, "Longitude": 78.435777 }, "geometry": { "type": "Point", "coordinates": [ 78.435777, 17.441648 ] } },
{ "type": "Feature", "properties": { "Location": "6-3-1240\/1\/C, MS MAKTHA, KHAIRATABAD, HYD., Khairatabad, Hyderabad, Telangana, India", "Latitude": 17.4189478, "Longitude": 78.4650544 }, "geometry": { "type": "Point", "coordinates": [ 78.4650544, 17.4189478 ] } },
{ "type": "Feature", "properties": { "Location": "6-3-1240\/154, MS MAKTHA, KHAIRATABAD, HYD., Khairatabad, Hyderabad, Telangana, India", "Latitude": 17.4189478, "Longitude": 78.4650544 }, "geometry": { "type": "Point", "coordinates": [ 78.4650544, 17.4189478 ] } },
{ "type": "Feature", "properties": { "Location": "8-4-369\/299\/B, BORABANDA, HYD., Khairatabad, Hyderabad, Telangana, India", "Latitude": 17.4486653, "Longitude": 78.4100161 }, "geometry": { "type": "Point", "coordinates": [ 78.4100161, 17.4486653 ] } },
{ "type": "Feature", "properties": { "Location": "7-1-282\/26,BALKAMPET,HYD, Khairatabad, Hyderabad, Telangana, India", "Latitude": 17.4419687, "Longitude": 78.451038 }, "geometry": { "type": "Point", "coordinates": [ 78.451038, 17.4419687 ] } },
{ "type": "Feature", "properties": { "Location": "8-4-369\/305,SWARAJ NAGAR,BORABANDA,HYD, Khairatabad, Hyderabad, Telangana, India", "Latitude": 17.4549382, "Longitude": 78.41124 }, "geometry": { "type": "Point", "coordinates": [ 78.41124, 17.4549382 ] } },
{ "type": "Feature", "properties": { "Location": "7-1-307\/A\/5,SANATHNAGAR,HYD, Khairatabad, Hyderabad, Telangana, India", "Latitude": 17.4526898, "Longitude": 78.4434329 }, "geometry": { "type": "Point", "coordinates": [ 78.4434329, 17.4526898 ] } },
{ "type": "Feature", "properties": { "Location": "7-1-309\/2,BALKAMPET ,HYD, Khairatabad, Hyderabad, Telangana, India", "Latitude": 17.4419687, "Longitude": 78.451038 }, "geometry": { "type": "Point", "coordinates": [ 78.451038, 17.4419687 ] } },
{ "type": "Feature", "properties": { "Location": "7-1-632\/147\/1, BAPU NAGAR, SR NAGAR HYDERABAD, Khairatabad, Hyderabad, Telangana, India", "Latitude": 17.4431143, "Longitude": 78.4421317 }, "geometry": { "type": "Point", "coordinates": [ 78.4421317, 17.4431143 ] } },
{ "type": "Feature", "properties": { "Location": "7-1-401\/A,AMEERPET,HYD, Khairatabad, Hyderabad, Telangana, India", "Latitude": 17.435285, "Longitude": 78.4443325 }, "geometry": { "type": "Point", "coordinates": [ 78.4443325, 17.435285 ] } },
{ "type": "Feature", "properties": { "Location": "7-1-401\/A\/11,SANJEEVA REDDY NAGAR,HYD, Khairatabad, Hyderabad, Telangana, India", "Latitude": 17.4407463, "Longitude": 78.4422764 }, "geometry": { "type": "Point", "coordinates": [ 78.4422764, 17.4407463 ] } },
{ "type": "Feature", "properties": { "Location": "8-2-601\/G\/132 B. HILLS, Khairatabad, Hyderabad, Telangana, India", "Latitude": 17.4138277, "Longitude": 78.4397584 }, "geometry": { "type": "Point", "coordinates": [ 78.4397584, 17.4138277 ] } },
{ "type": "Feature", "properties": { "Location": "8-3-162\/A\/85\/2,S P R HILLS,BORABANDA,HYD, Khairatabad, Hyderabad, Telangana, India", "Latitude": 17.4465336, "Longitude": 78.4108829 }, "geometry": { "type": "Point", "coordinates": [ 78.4108829, 17.4465336 ] } },
{ "type": "Feature", "properties": { "Location": "7-2-1087\/7\/A T.10744,SANATHNAGAR,HYD, Khairatabad, Hyderabad, Telangana, India", "Latitude": 17.4526898, "Longitude": 78.4434329 }, "geometry": { "type": "Point", "coordinates": [ 78.4434329, 17.4526898 ] } },
{ "type": "Feature", "properties": { "Location": "7-2-70,SANATHNAGAR,HYD, Khairatabad, Hyderabad, Telangana, India", "Latitude": 17.454871, "Longitude": 78.4410022 }, "geometry": { "type": "Point", "coordinates": [ 78.4410022, 17.454871 ] } },
{ "type": "Feature", "properties": { "Location": "7-2-810\/1,SANATHNAGAR,HYD, Khairatabad, Hyderabad, Telangana, India", "Latitude": 17.454871, "Longitude": 78.4410022 }, "geometry": { "type": "Point", "coordinates": [ 78.4410022, 17.454871 ] } },
{ "type": "Feature", "properties": { "Location": "7-2-1060,SANATHNAGAR,HYD, Khairatabad, Hyderabad, Telangana, India", "Latitude": 17.454871, "Longitude": 78.4410022 }, "geometry": { "type": "Point", "coordinates": [ 78.4410022, 17.454871 ] } },
{ "type": "Feature", "properties": { "Location": "7-2-1130\/1,SANATHNAGAR,HYD, Khairatabad, Hyderabad, Telangana, India", "Latitude": 17.454871, "Longitude": 78.4410022 }, "geometry": { "type": "Point", "coordinates": [ 78.4410022, 17.454871 ] } },
{ "type": "Feature", "properties": { "Location": "7-2-1019,SANATHNGAR,HYD, Khairatabad, Hyderabad, Telangana, India", "Latitude": 17.454871, "Longitude": 78.4410022 }, "geometry": { "type": "Point", "coordinates": [ 78.4410022, 17.454871 ] } },
{ "type": "Feature", "properties": { "Location": "SRT 990,SANATHNAGAR,HYD, Khairatabad, Hyderabad, Telangana, India", "Latitude": 17.4539735, "Longitude": 78.4459381 }, "geometry": { "type": "Point", "coordinates": [ 78.4459381, 17.4539735 ] } },
{ "type": "Feature", "properties": { "Location": "SRT 799,SANATHNAGAR,HYD, Khairatabad, Hyderabad, Telangana, India", "Latitude": 17.4539735, "Longitude": 78.4459381 }, "geometry": { "type": "Point", "coordinates": [ 78.4459381, 17.4539735 ] } },
{ "type": "Feature", "properties": { "Location": "6-3-408,PANJAGUTTA,HYD, Khairatabad, Hyderabad, Telangana, India", "Latitude": 17.4305697, "Longitude": 78.450812 }, "geometry": { "type": "Point", "coordinates": [ 78.450812, 17.4305697 ] } },
{ "type": "Feature", "properties": { "Location": "SITE-III,BORABANDA, Khairatabad, Hyderabad, Telangana, India", "Latitude": 17.4517675, "Longitude": 78.4069709 }, "geometry": { "type": "Point", "coordinates": [ 78.4069709, 17.4517675 ] } },
{ "type": "Feature", "properties": { "Location": "8-2-272\/35\/72,BANJARA HILLS ,RD NO.3,HYD, Khairatabad, Hyderabad, Telangana, India", "Latitude": 17.4273067, "Longitude": 78.4370293 }, "geometry": { "type": "Point", "coordinates": [ 78.4370293, 17.4273067 ] } },
{ "type": "Feature", "properties": { "Location": ", Khairatabad, Hyderabad, Telangana, India", "Latitude": 17.4150606, "Longitude": 78.4648288 }, "geometry": { "type": "Point", "coordinates": [ 78.4648288, 17.4150606 ] } },
{ "type": "Feature", "properties": { "Location": "8-2-676\/1\/B\/30\/7\/8,BANJARA HILLS ,SRIRAM NAGAR,HYD, Khairatabad, Hyderabad, Telangana, India", "Latitude": 17.4251567, "Longitude": 78.4387425 }, "geometry": { "type": "Point", "coordinates": [ 78.4387425, 17.4251567 ] } },
{ "type": "Feature", "properties": { "Location": "8-2-751\/11,BANJARA HILLS ,HYD, Khairatabad, Hyderabad, Telangana, India", "Latitude": 17.413507, "Longitude": 78.44493 }, "geometry": { "type": "Point", "coordinates": [ 78.44493, 17.413507 ] } },
{ "type": "Feature", "properties": { "Location": "8-3-169\/RN\/60\/1378 SPR HILLS BORABANDA HYD, Khairatabad, Hyderabad, Telangana, India", "Latitude": 17.4465336, "Longitude": 78.4108829 }, "geometry": { "type": "Point", "coordinates": [ 78.4108829, 17.4465336 ] } },
{ "type": "Feature", "properties": { "Location": "NO. 5 6 HOUSING BOARD SHOP S R NAGAR HYD, Khairatabad, Hyderabad, Telangana, India", "Latitude": 17.4436497, "Longitude": 78.4458259 }, "geometry": { "type": "Point", "coordinates": [ 78.4458259, 17.4436497 ] } },
{ "type": "Feature", "properties": { "Location": "8-3-228\/1184 JAWAHAR NAGAR RAHMATH NAGAR HYD, Khairatabad, Hyderabad, Telangana, India", "Latitude": 17.4411485, "Longitude": 78.4277494 }, "geometry": { "type": "Point", "coordinates": [ 78.4277494, 17.4411485 ] } },
{ "type": "Feature", "properties": { "Location": "8-3-228\/853\/E RAHMATH NAGAR HYD, Khairatabad, Hyderabad, Telangana, India", "Latitude": 17.4398757, "Longitude": 78.4238443 }, "geometry": { "type": "Point", "coordinates": [ 78.4238443, 17.4398757 ] } },
{ "type": "Feature", "properties": { "Location": "8-3-228\/678\/571SRI RAM NAGAR YOUSUFGUDA HYD, Khairatabad, Hyderabad, Telangana, India", "Latitude": 17.4125847, "Longitude": 78.5053248 }, "geometry": { "type": "Point", "coordinates": [ 78.5053248, 17.4125847 ] } },
{ "type": "Feature", "properties": { "Location": "RD NO.17,JUBILEE HILLS STORES,JUBILEE HILLS, Khairatabad, Hyderabad, Telangana, India", "Latitude": 17.426742, "Longitude": 78.438392 }, "geometry": { "type": "Point", "coordinates": [ 78.438392, 17.426742 ] } },
{ "type": "Feature", "properties": { "Location": "8-3-231\/B\/24,KRISHNA NAGAR,YOUSUFGUDA,HYD, Khairatabad, Hyderabad, Telangana, India", "Latitude": 17.4325895, "Longitude": 78.4275865 }, "geometry": { "type": "Point", "coordinates": [ 78.4275865, 17.4325895 ] } },
{ "type": "Feature", "properties": { "Location": "8-3-237\/4\/9\/4,YOUSUFGUDA,HYD, Khairatabad, Hyderabad, Telangana, India", "Latitude": 17.4327477, "Longitude": 78.430166 }, "geometry": { "type": "Point", "coordinates": [ 78.430166, 17.4327477 ] } },
{ "type": "Feature", "properties": { "Location": "8-2-293\/82\/MRC\/11\/A,FILM NAGAR,HYD, Khairatabad, Hyderabad, Telangana, India", "Latitude": 17.4141797, "Longitude": 78.41169 }, "geometry": { "type": "Point", "coordinates": [ 78.41169, 17.4141797 ] } },
{ "type": "Feature", "properties": { "Location": "8-3-653,YELLAREDDYGUDA,HYD, Khairatabad, Hyderabad, Telangana, India", "Latitude": 17.432687, "Longitude": 78.440311 }, "geometry": { "type": "Point", "coordinates": [ 78.440311, 17.432687 ] } },
{ "type": "Feature", "properties": { "Location": "8-3-755\/2,YELLAREDDYGUDA,AMPT,HYD, Khairatabad, Hyderabad, Telangana, India", "Latitude": 17.43111, "Longitude": 78.441824 }, "geometry": { "type": "Point", "coordinates": [ 78.441824, 17.43111 ] } },
{ "type": "Feature", "properties": { "Location": "8-3-965\/8,YELLAREDDYGUDA,HYD, Khairatabad, Hyderabad, Telangana, India", "Latitude": 17.431537, "Longitude": 78.44252 }, "geometry": { "type": "Point", "coordinates": [ 78.44252, 17.431537 ] } },
{ "type": "Feature", "properties": { "Location": "8-3-228\/678\/1273\/A,SRIRAM NAGAR,YOUSUFGUDA,HYD, Khairatabad, Hyderabad, Telangana, India", "Latitude": 17.454217, "Longitude": 78.4226324 }, "geometry": { "type": "Point", "coordinates": [ 78.4226324, 17.454217 ] } },
{ "type": "Feature", "properties": { "Location": "8-3-169\/132\/A,HF NAGAR,BORABANDA,HYD, Khairatabad, Hyderabad, Telangana, India", "Latitude": 17.4485287, "Longitude": 78.415538 }, "geometry": { "type": "Point", "coordinates": [ 78.415538, 17.4485287 ] } },
{ "type": "Feature", "properties": { "Location": "8-3-228\/659,RAHMATNAGAR,HYD, Khairatabad, Hyderabad, Telangana, India", "Latitude": 17.4150606, "Longitude": 78.4648288 }, "geometry": { "type": "Point", "coordinates": [ 78.4648288, 17.4150606 ] } },
{ "type": "Feature", "properties": { "Location": "8-4-390\/60\/4\/1,ERRAGADDA,HYD, Khairatabad, Hyderabad, Telangana, India", "Latitude": 17.4562645, "Longitude": 78.4308225 }, "geometry": { "type": "Point", "coordinates": [ 78.4308225, 17.4562645 ] } },
{ "type": "Feature", "properties": { "Location": "8-4-39\/A\/2,ERRAGADDA,HYD, Khairatabad, Hyderabad, Telangana, India", "Latitude": 17.4562645, "Longitude": 78.4308225 }, "geometry": { "type": "Point", "coordinates": [ 78.4308225, 17.4562645 ] } },
{ "type": "Feature", "properties": { "Location": "8-4-543\/30,ERRAGADDA,HYD, Khairatabad, Hyderabad, Telangana, India", "Latitude": 17.4562645, "Longitude": 78.4308225 }, "geometry": { "type": "Point", "coordinates": [ 78.4308225, 17.4562645 ] } },
{ "type": "Feature", "properties": { "Location": "8-4-544\/590\/3,SULTAN NAGAR,ERRAGADDA,HYD, Khairatabad, Hyderabad, Telangana, India", "Latitude": 17.4539575, "Longitude": 78.4287732 }, "geometry": { "type": "Point", "coordinates": [ 78.4287732, 17.4539575 ] } },
{ "type": "Feature", "properties": { "Location": "10-1-603,CHINTALBASTI,KHAIRTABAD,HYD, Khairatabad, Hyderabad, Telangana, India", "Latitude": 17.4093377, "Longitude": 78.4572031 }, "geometry": { "type": "Point", "coordinates": [ 78.4572031, 17.4093377 ] } },
{ "type": "Feature", "properties": { "Location": "8-3-169\/8\/609,SPR HILLS,BORABANDA,HYD, Khairatabad, Hyderabad, Telangana, India", "Latitude": 17.4466656, "Longitude": 78.4093088 }, "geometry": { "type": "Point", "coordinates": [ 78.4093088, 17.4466656 ] } },
{ "type": "Feature", "properties": { "Location": "8-3-231\/C\/88,VENKATAGIRI,HYD, Khairatabad, Hyderabad, Telangana, India", "Latitude": 17.418489, "Longitude": 78.458583 }, "geometry": { "type": "Point", "coordinates": [ 78.458583, 17.418489 ] } },
{ "type": "Feature", "properties": { "Location": "8-4-543\/10,ERRAGADDA,HYD, Khairatabad, Hyderabad, Telangana, India", "Latitude": 17.4562645, "Longitude": 78.4308225 }, "geometry": { "type": "Point", "coordinates": [ 78.4308225, 17.4562645 ] } },
{ "type": "Feature", "properties": { "Location": "247\/1,NRR PURAM,BORABANDA, Khairatabad, Hyderabad, Telangana, India", "Latitude": 17.453816, "Longitude": 78.413527 }, "geometry": { "type": "Point", "coordinates": [ 78.413527, 17.453816 ] } },
{ "type": "Feature", "properties": { "Location": "8-2-684\/80\/A,NBT NAGAR,BANJARA HILLS ,HYD, Khairatabad, Hyderabad, Telangana, India", "Latitude": 17.4092776, "Longitude": 78.4329491 }, "geometry": { "type": "Point", "coordinates": [ 78.4329491, 17.4092776 ] } },
{ "type": "Feature", "properties": { "Location": "8-2-293\/192\/38,RD NO.14,BANJARA HILLS,HYD, Khairatabad, Hyderabad, Telangana, India", "Latitude": 17.4227592, "Longitude": 78.4283726 }, "geometry": { "type": "Point", "coordinates": [ 78.4283726, 17.4227592 ] } },
{ "type": "Feature", "properties": { "Location": "8-2-293\/D\/9,INDIRA NAGAR,KRISHNA NAGAR,HYD, Khairatabad, Hyderabad, Telangana, India", "Latitude": 17.43892, "Longitude": 78.358455 }, "geometry": { "type": "Point", "coordinates": [ 78.358455, 17.43892 ] } },
{ "type": "Feature", "properties": { "Location": "6-1-912\/E,KHAIRTABAD,HYD, Khairatabad, Hyderabad, Telangana, India", "Latitude": 17.409767, "Longitude": 78.4600256 }, "geometry": { "type": "Point", "coordinates": [ 78.4600256, 17.409767 ] } },
{ "type": "Feature", "properties": { "Location": "6-3-1247\/218\/A,SOMAJIGUDA,HYD, Khairatabad, Hyderabad, Telangana, India", "Latitude": 17.4226075, "Longitude": 78.4613637 }, "geometry": { "type": "Point", "coordinates": [ 78.4613637, 17.4226075 ] } },
{ "type": "Feature", "properties": { "Location": "6-2-613\/75\/L\/317,BANJARA HILLS ,HYD, Khairatabad, Hyderabad, Telangana, India", "Latitude": 17.4138277, "Longitude": 78.4397584 }, "geometry": { "type": "Point", "coordinates": [ 78.4397584, 17.4138277 ] } },
{ "type": "Feature", "properties": { "Location": "G-544,NRR PURAM,SITE-III,BORABANDA,HYD, Khairatabad, Hyderabad, Telangana, India", "Latitude": 17.454634, "Longitude": 78.4062623 }, "geometry": { "type": "Point", "coordinates": [ 78.4062623, 17.454634 ] } },
{ "type": "Feature", "properties": { "Location": "8-4-367\/140, BORABANDA, Khairatabad, Hyderabad, Telangana, India", "Latitude": 17.4486653, "Longitude": 78.4100161 }, "geometry": { "type": "Point", "coordinates": [ 78.4100161, 17.4486653 ] } },
{ "type": "Feature", "properties": { "Location": "8-2-686\/34,NBT NAGAR,BANJARA HILLS,HYD, Khairatabad, Hyderabad, Telangana, India", "Latitude": 17.4108505, "Longitude": 78.4374459 }, "geometry": { "type": "Point", "coordinates": [ 78.4374459, 17.4108505 ] } },
{ "type": "Feature", "properties": { "Location": "8-3-169\/1045,SPR HILLS,BORABANDA,HYD, Khairatabad, Hyderabad, Telangana, India", "Latitude": 17.4466656, "Longitude": 78.4093088 }, "geometry": { "type": "Point", "coordinates": [ 78.4093088, 17.4466656 ] } },
{ "type": "Feature", "properties": { "Location": ", Khairatabad, Hyderabad, Telangana, India", "Latitude": 17.4150606, "Longitude": 78.4648288 }, "geometry": { "type": "Point", "coordinates": [ 78.4648288, 17.4150606 ] } },
{ "type": "Feature", "properties": { "Location": "8-2-269\/19\/293\/D\/7, INDIRA NAGAR HYD, Khairatabad, Hyderabad, Telangana, India", "Latitude": 17.4120103, "Longitude": 78.461508 }, "geometry": { "type": "Point", "coordinates": [ 78.461508, 17.4120103 ] } },
{ "type": "Feature", "properties": { "Location": "8-3-169\/20,HF NAGAR,BORABANDA,HYD, Khairatabad, Hyderabad, Telangana, India", "Latitude": 17.4471499, "Longitude": 78.414276 }, "geometry": { "type": "Point", "coordinates": [ 78.414276, 17.4471499 ] } },
{ "type": "Feature", "properties": { "Location": "7-1-307\/25\/10\/A B K GUDA HYD, Khairatabad, Hyderabad, Telangana, India", "Latitude": 17.4150606, "Longitude": 78.4648288 }, "geometry": { "type": "Point", "coordinates": [ 78.4648288, 17.4150606 ] } },
{ "type": "Feature", "properties": { "Location": "PLOT NO 166 FILM NAGAR HYD, Khairatabad, Hyderabad, Telangana, India", "Latitude": 17.3993604, "Longitude": 78.4140057 }, "geometry": { "type": "Point", "coordinates": [ 78.4140057, 17.3993604 ] } },
{ "type": "Feature", "properties": { "Location": "H NO 145\/G FILM NAGAR HYD, Khairatabad, Hyderabad, Telangana, India", "Latitude": 17.4141797, "Longitude": 78.41169 }, "geometry": { "type": "Point", "coordinates": [ 78.41169, 17.4141797 ] } },
{ "type": "Feature", "properties": { "Location": "8-3-231\/A\/369\/A,KRISHNA NAGAR,HYD, Khairatabad, Hyderabad, Telangana, India", "Latitude": 17.4305565, "Longitude": 78.4270534 }, "geometry": { "type": "Point", "coordinates": [ 78.4270534, 17.4305565 ] } },
{ "type": "Feature", "properties": { "Location": "8-3-228\/678\/1587,SRIRAM NAGAR,YOUSUFGUDA,HYD, Khairatabad, Hyderabad, Telangana, India", "Latitude": 17.454217, "Longitude": 78.4226324 }, "geometry": { "type": "Point", "coordinates": [ 78.4226324, 17.454217 ] } },
{ "type": "Feature", "properties": { "Location": "8-3-231\/A\/29\/1,KRISHNA NAGAR,HYD, Khairatabad, Hyderabad, Telangana, India", "Latitude": 17.4305565, "Longitude": 78.4270534 }, "geometry": { "type": "Point", "coordinates": [ 78.4270534, 17.4305565 ] } },
{ "type": "Feature", "properties": { "Location": "SHOP NO.1,SHOPPING COMPLEX,A G CLY,HYD, Khairatabad, Hyderabad, Telangana, India", "Latitude": 17.4150606, "Longitude": 78.4648288 }, "geometry": { "type": "Point", "coordinates": [ 78.4648288, 17.4150606 ] } },
{ "type": "Feature", "properties": { "Location": "8-3-228\/26,JAWAHAR NAGAR,RAHMATNAGAR,HYD, Khairatabad, Hyderabad, Telangana, India", "Latitude": 17.4392558, "Longitude": 78.4244586 }, "geometry": { "type": "Point", "coordinates": [ 78.4244586, 17.4392558 ] } },
{ "type": "Feature", "properties": { "Location": "8-3-228\/1190,JAWAHAR NAGAR,RAHMATNAGAR,HYD, Khairatabad, Hyderabad, Telangana, India", "Latitude": 17.4392558, "Longitude": 78.4244586 }, "geometry": { "type": "Point", "coordinates": [ 78.4244586, 17.4392558 ] } },
{ "type": "Feature", "properties": { "Location": "8-3-228\/333,RAHMATNAGAR,HYD, Khairatabad, Hyderabad, Telangana, India", "Latitude": 17.4150606, "Longitude": 78.4648288 }, "geometry": { "type": "Point", "coordinates": [ 78.4648288, 17.4150606 ] } },
{ "type": "Feature", "properties": { "Location": "8-3-229\/C\/1\/2 VENKATAGIRI HYD, Khairatabad, Hyderabad, Telangana, India", "Latitude": 17.433805, "Longitude": 78.407655 }, "geometry": { "type": "Point", "coordinates": [ 78.407655, 17.433805 ] } },
{ "type": "Feature", "properties": { "Location": "8-4-544\/74\/1\/A,ERRAGADDA,HYD, Khairatabad, Hyderabad, Telangana, India", "Latitude": 17.456505, "Longitude": 78.430798 }, "geometry": { "type": "Point", "coordinates": [ 78.430798, 17.456505 ] } },
{ "type": "Feature", "properties": { "Location": "378-1,NRR PURAM ,BORABANDA,HYD, Khairatabad, Hyderabad, Telangana, India", "Latitude": 17.453816, "Longitude": 78.413527 }, "geometry": { "type": "Point", "coordinates": [ 78.413527, 17.453816 ] } },
{ "type": "Feature", "properties": { "Location": "8-4-371\/A\/26,BORABANDA,HYD, Khairatabad, Hyderabad, Telangana, India", "Latitude": 17.4565082, "Longitude": 78.4126163 }, "geometry": { "type": "Point", "coordinates": [ 78.4126163, 17.4565082 ] } },
{ "type": "Feature", "properties": { "Location": "8-4-370\/593,BORABANDA,HYD, Khairatabad, Hyderabad, Telangana, India", "Latitude": 17.4486653, "Longitude": 78.4100161 }, "geometry": { "type": "Point", "coordinates": [ 78.4100161, 17.4486653 ] } },
{ "type": "Feature", "properties": { "Location": "8-4-546\/23\/1,BORABANDA,HYD, Khairatabad, Hyderabad, Telangana, India", "Latitude": 17.4531458, "Longitude": 78.3993471 }, "geometry": { "type": "Point", "coordinates": [ 78.3993471, 17.4531458 ] } },
{ "type": "Feature", "properties": { "Location": "6-3-1185\/125\/2,B S MAKTHA,HYD, Khairatabad, Hyderabad, Telangana, India", "Latitude": 17.4289742, "Longitude": 78.4605201 }, "geometry": { "type": "Point", "coordinates": [ 78.4605201, 17.4289742 ] } },
{ "type": "Feature", "properties": { "Location": "8-2 FILMNAGAR NEAR ABN TV STUDIO., Khairatabad, Hyderabad, Telangana, India", "Latitude": 17.415808, "Longitude": 78.410896 }, "geometry": { "type": "Point", "coordinates": [ 78.410896, 17.415808 ] } },
{ "type": "Feature", "properties": { "Location": "22-2-853, Noor Khan Bazar, Yakutpura, Hyderabad, Telangana, India", "Latitude": 17.3703275, "Longitude": 78.4845392 }, "geometry": { "type": "Point", "coordinates": [ 78.4845392, 17.3703275 ] } },
{ "type": "Feature", "properties": { "Location": "16-6-536, KATTELAMANDI, Yakutpura, Hyderabad, Telangana, India", "Latitude": 17.3595152, "Longitude": 78.4851396 }, "geometry": { "type": "Point", "coordinates": [ 78.4851396, 17.3595152 ] } },
{ "type": "Feature", "properties": { "Location": "16-6-193\/2,KATTELAMANDI, Yakutpura, Hyderabad, Telangana, India", "Latitude": 17.4628191, "Longitude": 78.3763087 }, "geometry": { "type": "Point", "coordinates": [ 78.3763087, 17.4628191 ] } },
{ "type": "Feature", "properties": { "Location": "22-1-246,KALIKHABAR, Yakutpura, Hyderabad, Telangana, India", "Latitude": 17.3595152, "Longitude": 78.4851396 }, "geometry": { "type": "Point", "coordinates": [ 78.4851396, 17.3595152 ] } },
{ "type": "Feature", "properties": { "Location": "22-1-521,KALIKHABAR, Yakutpura, Hyderabad, Telangana, India", "Latitude": 17.3595152, "Longitude": 78.4851396 }, "geometry": { "type": "Point", "coordinates": [ 78.4851396, 17.3595152 ] } },
{ "type": "Feature", "properties": { "Location": "18-1-292\/47\/3, SHIVAJI NAGAR, Yakutpura, Hyderabad, Telangana, India", "Latitude": 17.3655955, "Longitude": 78.451637 }, "geometry": { "type": "Point", "coordinates": [ 78.451637, 17.3655955 ] } },
{ "type": "Feature", "properties": { "Location": "22-2-138, KOMATWADI, Yakutpura, Hyderabad, Telangana, India", "Latitude": 17.3693473, "Longitude": 78.4875842 }, "geometry": { "type": "Point", "coordinates": [ 78.4875842, 17.3693473 ] } },
{ "type": "Feature", "properties": { "Location": "22-2-168,KOMATWADI, Yakutpura, Hyderabad, Telangana, India", "Latitude": 17.3693473, "Longitude": 78.4875842 }, "geometry": { "type": "Point", "coordinates": [ 78.4875842, 17.3693473 ] } },
{ "type": "Feature", "properties": { "Location": "18-1-292\/47\/B\/22, SHIVAJI NAGAR, Yakutpura, Hyderabad, Telangana, India", "Latitude": 17.4847865, "Longitude": 78.3277469 }, "geometry": { "type": "Point", "coordinates": [ 78.3277469, 17.4847865 ] } },
{ "type": "Feature", "properties": { "Location": "18-1-292\/A\/18,PARVATHI NAGAR, Yakutpura, Hyderabad, Telangana, India", "Latitude": 17.4576802, "Longitude": 78.4023524 }, "geometry": { "type": "Point", "coordinates": [ 78.4023524, 17.4576802 ] } },
{ "type": "Feature", "properties": { "Location": "22-4-258, ALIJAH KOTLA, Yakutpura, Hyderabad, Telangana, India", "Latitude": 17.359992, "Longitude": 78.4796441 }, "geometry": { "type": "Point", "coordinates": [ 78.4796441, 17.359992 ] } },
{ "type": "Feature", "properties": { "Location": "18-13-17\/A\/10\/1\/B,BANDLAGUDA, Yakutpura, Hyderabad, Telangana, India", "Latitude": 17.3474679, "Longitude": 78.3837853 }, "geometry": { "type": "Point", "coordinates": [ 78.3837853, 17.3474679 ] } },
{ "type": "Feature", "properties": { "Location": "22-4-538, ALIJAH KOTLA, Yakutpura, Hyderabad, Telangana, India", "Latitude": 17.359992, "Longitude": 78.4796441 }, "geometry": { "type": "Point", "coordinates": [ 78.4796441, 17.359992 ] } },
{ "type": "Feature", "properties": { "Location": "22-5-620\/A,ALIJAH KOTLA, Yakutpura, Hyderabad, Telangana, India", "Latitude": 17.359992, "Longitude": 78.4796441 }, "geometry": { "type": "Point", "coordinates": [ 78.4796441, 17.359992 ] } },
{ "type": "Feature", "properties": { "Location": "22-5-479, PUNJESHA, Yakutpura, Hyderabad, Telangana, India", "Latitude": 17.3595152, "Longitude": 78.4851396 }, "geometry": { "type": "Point", "coordinates": [ 78.4851396, 17.3595152 ] } },
{ "type": "Feature", "properties": { "Location": "18-7-198\/B\/6\/A, Aman Nagar, Yakutpura, Hyderabad, Telangana, India", "Latitude": 17.3573995, "Longitude": 78.4872038 }, "geometry": { "type": "Point", "coordinates": [ 78.4872038, 17.3573995 ] } },
{ "type": "Feature", "properties": { "Location": "22-8-453, PURANI HAVELI, Yakutpura, Hyderabad, Telangana, India", "Latitude": 17.3629203, "Longitude": 78.482091 }, "geometry": { "type": "Point", "coordinates": [ 78.482091, 17.3629203 ] } },
{ "type": "Feature", "properties": { "Location": "22-5-856, Sadar Mahal, Yakutpura, Hyderabad, Telangana, India", "Latitude": 17.3616285, "Longitude": 78.4857387 }, "geometry": { "type": "Point", "coordinates": [ 78.4857387, 17.3616285 ] } },
{ "type": "Feature", "properties": { "Location": "18-1-29\/47\/A\/16\/A,UPPUGUDA, Yakutpura, Hyderabad, Telangana, India", "Latitude": 17.341561, "Longitude": 78.487922 }, "geometry": { "type": "Point", "coordinates": [ 78.487922, 17.341561 ] } },
{ "type": "Feature", "properties": { "Location": "23-2-114\/B\/2,MOGHAL PURA, Yakutpura, Hyderabad, Telangana, India", "Latitude": 17.3558918, "Longitude": 78.4780424 }, "geometry": { "type": "Point", "coordinates": [ 78.4780424, 17.3558918 ] } },
{ "type": "Feature", "properties": { "Location": "23-3-466, GOWLI PURA, Yakutpura, Hyderabad, Telangana, India", "Latitude": 17.3506165, "Longitude": 78.4822982 }, "geometry": { "type": "Point", "coordinates": [ 78.4822982, 17.3506165 ] } },
{ "type": "Feature", "properties": { "Location": "23-4-329,GOWLI PURA, Yakutpura, Hyderabad, Telangana, India", "Latitude": 17.3506165, "Longitude": 78.4822982 }, "geometry": { "type": "Point", "coordinates": [ 78.4822982, 17.3506165 ] } },
{ "type": "Feature", "properties": { "Location": "23-4-695,SULTAN SHAHI, Yakutpura, Hyderabad, Telangana, India", "Latitude": 17.3530483, "Longitude": 78.4833173 }, "geometry": { "type": "Point", "coordinates": [ 78.4833173, 17.3530483 ] } },
{ "type": "Feature", "properties": { "Location": "18-6-623\/1, LAL DARWAZA, Yakutpura, Hyderabad, Telangana, India", "Latitude": 17.3465334, "Longitude": 78.4755731 }, "geometry": { "type": "Point", "coordinates": [ 78.4755731, 17.3465334 ] } },
{ "type": "Feature", "properties": { "Location": "23-5-758,LAL DARWAZA, Yakutpura, Hyderabad, Telangana, India", "Latitude": 17.3491041, "Longitude": 78.4773311 }, "geometry": { "type": "Point", "coordinates": [ 78.4773311, 17.3491041 ] } },
{ "type": "Feature", "properties": { "Location": "23-5-1101,GOWLI PURA, Yakutpura, Hyderabad, Telangana, India", "Latitude": 17.3506165, "Longitude": 78.4822982 }, "geometry": { "type": "Point", "coordinates": [ 78.4822982, 17.3506165 ] } },
{ "type": "Feature", "properties": { "Location": "18-5-737,MAKALA BANDA, Yakutpura, Hyderabad, Telangana, India", "Latitude": 17.3595152, "Longitude": 78.4851396 }, "geometry": { "type": "Point", "coordinates": [ 78.4851396, 17.3595152 ] } },
{ "type": "Feature", "properties": { "Location": "23-6-74\/52,GOWLI PURA, Yakutpura, Hyderabad, Telangana, India", "Latitude": 17.3506165, "Longitude": 78.4822982 }, "geometry": { "type": "Point", "coordinates": [ 78.4822982, 17.3506165 ] } },
{ "type": "Feature", "properties": { "Location": "23-2-593\/2,HARIBOWLI, Yakutpura, Hyderabad, Telangana, India", "Latitude": 17.3543333, "Longitude": 78.4774118 }, "geometry": { "type": "Point", "coordinates": [ 78.4774118, 17.3543333 ] } },
{ "type": "Feature", "properties": { "Location": "18-12, BABA NAGAR, Yakutpura, Hyderabad, Telangana, India", "Latitude": 17.3306687, "Longitude": 78.4879284 }, "geometry": { "type": "Point", "coordinates": [ 78.4879284, 17.3306687 ] } },
{ "type": "Feature", "properties": { "Location": "18-8-297\/16,TANAJI NAGAR UPPUGUDA, Yakutpura, Hyderabad, Telangana, India", "Latitude": 17.341993, "Longitude": 78.4900169 }, "geometry": { "type": "Point", "coordinates": [ 78.4900169, 17.341993 ] } },
{ "type": "Feature", "properties": { "Location": "18-2-138\/4\/A,JANGAMMET, Yakutpura, Hyderabad, Telangana, India", "Latitude": 17.3332877, "Longitude": 78.4708236 }, "geometry": { "type": "Point", "coordinates": [ 78.4708236, 17.3332877 ] } },
{ "type": "Feature", "properties": { "Location": "18-2-258\/2, JANGAMMET, Yakutpura, Hyderabad, Telangana, India", "Latitude": 17.3332877, "Longitude": 78.4708236 }, "geometry": { "type": "Point", "coordinates": [ 78.4708236, 17.3332877 ] } },
{ "type": "Feature", "properties": { "Location": "18-2-342,JANGAMMET, Yakutpura, Hyderabad, Telangana, India", "Latitude": 17.3332877, "Longitude": 78.4708236 }, "geometry": { "type": "Point", "coordinates": [ 78.4708236, 17.3332877 ] } },
{ "type": "Feature", "properties": { "Location": "18-2-654\/3,JANGAMMET, Yakutpura, Hyderabad, Telangana, India", "Latitude": 17.3332877, "Longitude": 78.4708236 }, "geometry": { "type": "Point", "coordinates": [ 78.4708236, 17.3332877 ] } },
{ "type": "Feature", "properties": { "Location": "18-3-563\/5,LAL DARWAZA, Yakutpura, Hyderabad, Telangana, India", "Latitude": 17.3491041, "Longitude": 78.4773311 }, "geometry": { "type": "Point", "coordinates": [ 78.4773311, 17.3491041 ] } },
{ "type": "Feature", "properties": { "Location": "18-4-181\/B,ALIABAD, Yakutpura, Hyderabad, Telangana, India", "Latitude": 17.3430543, "Longitude": 78.4713338 }, "geometry": { "type": "Point", "coordinates": [ 78.4713338, 17.3430543 ] } },
{ "type": "Feature", "properties": { "Location": "18-4-742,ALIABAD, Yakutpura, Hyderabad, Telangana, India", "Latitude": 17.3430543, "Longitude": 78.4713338 }, "geometry": { "type": "Point", "coordinates": [ 78.4713338, 17.3430543 ] } },
{ "type": "Feature", "properties": { "Location": "18-5-97 MEKALA BANDA, Yakutpura, Hyderabad, Telangana, India", "Latitude": 17.3595152, "Longitude": 78.4851396 }, "geometry": { "type": "Point", "coordinates": [ 78.4851396, 17.3595152 ] } },
{ "type": "Feature", "properties": { "Location": "18-2-739\/1,HARIBOWLI, Yakutpura, Hyderabad, Telangana, India", "Latitude": 17.352966, "Longitude": 78.4771292 }, "geometry": { "type": "Point", "coordinates": [ 78.4771292, 17.352966 ] } },
{ "type": "Feature", "properties": { "Location": "18-6-457\/A, Maqdoompura, Yakutpura, Hyderabad, Telangana, India", "Latitude": 17.3448902, "Longitude": 78.4776808 }, "geometry": { "type": "Point", "coordinates": [ 78.4776808, 17.3448902 ] } },
{ "type": "Feature", "properties": { "Location": ", Yakutpura, Hyderabad, Telangana, India", "Latitude": 17.3595152, "Longitude": 78.4851396 }, "geometry": { "type": "Point", "coordinates": [ 78.4851396, 17.3595152 ] } },
{ "type": "Feature", "properties": { "Location": "18-7-466, Ambica Nagar, Yakutpura, Hyderabad, Telangana, India", "Latitude": 17.3452829, "Longitude": 78.483451 }, "geometry": { "type": "Point", "coordinates": [ 78.483451, 17.3452829 ] } },
{ "type": "Feature", "properties": { "Location": ", Yakutpura, Hyderabad, Telangana, India", "Latitude": 17.3595152, "Longitude": 78.4851396 }, "geometry": { "type": "Point", "coordinates": [ 78.4851396, 17.3595152 ] } },
{ "type": "Feature", "properties": { "Location": "18-7-425\/A\/957, Bhavani Nagar, Yakutpura, Hyderabad, Telangana, India", "Latitude": 17.3548944, "Longitude": 78.4873184 }, "geometry": { "type": "Point", "coordinates": [ 78.4873184, 17.3548944 ] } },
{ "type": "Feature", "properties": { "Location": "18-7-527, Kandikalgate, Yakutpura, Hyderabad, Telangana, India", "Latitude": 17.3405986, "Longitude": 78.479684 }, "geometry": { "type": "Point", "coordinates": [ 78.479684, 17.3405986 ] } },
{ "type": "Feature", "properties": { "Location": "18-7-466\/20, Uppuguda, Yakutpura, Hyderabad, Telangana, India", "Latitude": 17.343737, "Longitude": 78.4822344 }, "geometry": { "type": "Point", "coordinates": [ 78.4822344, 17.343737 ] } },
{ "type": "Feature", "properties": { "Location": "18-7-466\/1\/d, Hanuman Nagar, Yakutpura, Hyderabad, Telangana, India", "Latitude": 17.4194948, "Longitude": 78.5847033 }, "geometry": { "type": "Point", "coordinates": [ 78.5847033, 17.4194948 ] } },
{ "type": "Feature", "properties": { "Location": "18-8-224\/11\/ARAJA NARSIMHA COLONY, RIYASATH NAGAR, Yakutpura, Hyderabad, Telangana, India", "Latitude": 17.4849119, "Longitude": 78.481943 }, "geometry": { "type": "Point", "coordinates": [ 78.481943, 17.4849119 ] } },
{ "type": "Feature", "properties": { "Location": "18-8-225\/10,RAJA NARSIMHA COLONY, RIYASATH NAGAR, Yakutpura, Hyderabad, Telangana, India", "Latitude": 17.3465453, "Longitude": 78.500866 }, "geometry": { "type": "Point", "coordinates": [ 78.500866, 17.3465453 ] } },
{ "type": "Feature", "properties": { "Location": "18-8-33 & 34,BHANNAKA, EDI BAZAR, Yakutpura, Hyderabad, Telangana, India", "Latitude": 17.3595152, "Longitude": 78.4851396 }, "geometry": { "type": "Point", "coordinates": [ 78.4851396, 17.3595152 ] } },
{ "type": "Feature", "properties": { "Location": "18-8-412\/A, UPPUGUDA, Yakutpura, Hyderabad, Telangana, India", "Latitude": 17.341822, "Longitude": 78.487217 }, "geometry": { "type": "Point", "coordinates": [ 78.487217, 17.341822 ] } },
{ "type": "Feature", "properties": { "Location": "18-8-395\/6,UPPUGUDA, Yakutpura, Hyderabad, Telangana, India", "Latitude": 17.341822, "Longitude": 78.487217 }, "geometry": { "type": "Point", "coordinates": [ 78.487217, 17.341822 ] } },
{ "type": "Feature", "properties": { "Location": "18-1-337\/A\/16\/A,SAI BABA NAGAR, Yakutpura, Hyderabad, Telangana, India", "Latitude": 17.338884, "Longitude": 78.4905859 }, "geometry": { "type": "Point", "coordinates": [ 78.4905859, 17.338884 ] } },
{ "type": "Feature", "properties": { "Location": "18-9-313\/1, Chandrayanagutta, Yakutpura, Hyderabad, Telangana, India", "Latitude": 17.3595152, "Longitude": 78.4851396 }, "geometry": { "type": "Point", "coordinates": [ 78.4851396, 17.3595152 ] } },
{ "type": "Feature", "properties": { "Location": "18-2-39\/3\/C,CHANDYANGUTTA, Yakutpura, Hyderabad, Telangana, India", "Latitude": 17.3023175, "Longitude": 78.4786166 }, "geometry": { "type": "Point", "coordinates": [ 78.4786166, 17.3023175 ] } },
{ "type": "Feature", "properties": { "Location": "18-10-38\/f\/17\/a\/1,BARKAS, Yakutpura, Hyderabad, Telangana, India", "Latitude": 17.3144099, "Longitude": 78.4832415 }, "geometry": { "type": "Point", "coordinates": [ 78.4832415, 17.3144099 ] } },
{ "type": "Feature", "properties": { "Location": "18-10-35\/1\/A, BARKAS, Yakutpura, Hyderabad, Telangana, India", "Latitude": 17.3193982, "Longitude": 78.4828349 }, "geometry": { "type": "Point", "coordinates": [ 78.4828349, 17.3193982 ] } },
{ "type": "Feature", "properties": { "Location": "18-11-38\/1,BARKAS, Yakutpura, Hyderabad, Telangana, India", "Latitude": 17.3144099, "Longitude": 78.4832415 }, "geometry": { "type": "Point", "coordinates": [ 78.4832415, 17.3144099 ] } },
{ "type": "Feature", "properties": { "Location": "18-11-420,BARKAS, Yakutpura, Hyderabad, Telangana, India", "Latitude": 17.3193982, "Longitude": 78.4828349 }, "geometry": { "type": "Point", "coordinates": [ 78.4828349, 17.3193982 ] } },
{ "type": "Feature", "properties": { "Location": "18-8-223\/120\/A\/9,RAKSHAPURAM COLONY, Yakutpura, Hyderabad, Telangana, India", "Latitude": 17.3390255, "Longitude": 78.4929648 }, "geometry": { "type": "Point", "coordinates": [ 78.4929648, 17.3390255 ] } },
{ "type": "Feature", "properties": { "Location": "18-13-6\/72,BANDLAGUDA, Yakutpura, Hyderabad, Telangana, India", "Latitude": 17.3595152, "Longitude": 78.4851396 }, "geometry": { "type": "Point", "coordinates": [ 78.4851396, 17.3595152 ] } },
{ "type": "Feature", "properties": { "Location": ", Yakutpura, Hyderabad, Telangana, India", "Latitude": 17.3595152, "Longitude": 78.4851396 }, "geometry": { "type": "Point", "coordinates": [ 78.4851396, 17.3595152 ] } },
{ "type": "Feature", "properties": { "Location": "18-12-419\/A\/124, Hafez baba nagar, Yakutpura, Hyderabad, Telangana, India", "Latitude": 17.3595152, "Longitude": 78.4851396 }, "geometry": { "type": "Point", "coordinates": [ 78.4851396, 17.3595152 ] } },
{ "type": "Feature", "properties": { "Location": "18-7-425\/2,TALABKATTA, BHAVANI NAGAR, Yakutpura, Hyderabad, Telangana, India", "Latitude": 17.354844, "Longitude": 78.487217 }, "geometry": { "type": "Point", "coordinates": [ 78.487217, 17.354844 ] } },
{ "type": "Feature", "properties": { "Location": "18-3-463\/1,JANGAMMET, Yakutpura, Hyderabad, Telangana, India", "Latitude": 17.3342483, "Longitude": 78.4698663 }, "geometry": { "type": "Point", "coordinates": [ 78.4698663, 17.3342483 ] } },
{ "type": "Feature", "properties": { "Location": "18-7-423\/A\/957\/1,TALABKATTA, BHAVANI NAGAR, Yakutpura, Hyderabad, Telangana, India", "Latitude": 17.354297, "Longitude": 78.489954 }, "geometry": { "type": "Point", "coordinates": [ 78.489954, 17.354297 ] } },
{ "type": "Feature", "properties": { "Location": "18-7-614\/3\/1,UPPUGUDA, Yakutpura, Hyderabad, Telangana, India", "Latitude": 17.341561, "Longitude": 78.487879 }, "geometry": { "type": "Point", "coordinates": [ 78.487879, 17.341561 ] } },
{ "type": "Feature", "properties": { "Location": "18-7-425\/216\/1,TALABKATTA, BHAVANI NAGAR, Yakutpura, Hyderabad, Telangana, India", "Latitude": 17.354844, "Longitude": 78.487217 }, "geometry": { "type": "Point", "coordinates": [ 78.487217, 17.354844 ] } },
{ "type": "Feature", "properties": { "Location": "18-7-423\/a\/38,TALABKATTA, BHAVANI NAGAR, Yakutpura, Hyderabad, Telangana, India", "Latitude": 17.3543282, "Longitude": 78.4895315 }, "geometry": { "type": "Point", "coordinates": [ 78.4895315, 17.3543282 ] } },
{ "type": "Feature", "properties": { "Location": "18-7-739\/32\/a,UPPUGUDA, Yakutpura, Hyderabad, Telangana, India", "Latitude": 17.343737, "Longitude": 78.4822344 }, "geometry": { "type": "Point", "coordinates": [ 78.4822344, 17.343737 ] } },
{ "type": "Feature", "properties": { "Location": "18-7-299\/123\/8,AMAN NAGAR, RANGELI KHIDKI, Yakutpura, Hyderabad, Telangana, India", "Latitude": 17.3573995, "Longitude": 78.4872038 }, "geometry": { "type": "Point", "coordinates": [ 78.4872038, 17.3573995 ] } },
{ "type": "Feature", "properties": { "Location": "18-8-224\/5\/69,RAJ NARSIMHA COLONY, RIYASATH NAGAR, Yakutpura, Hyderabad, Telangana, India", "Latitude": 17.3383854, "Longitude": 78.4966209 }, "geometry": { "type": "Point", "coordinates": [ 78.4966209, 17.3383854 ] } },
{ "type": "Feature", "properties": { "Location": "18-8-253\/141,JAMAL COLONY, MOIN BAGH, Yakutpura, Hyderabad, Telangana, India", "Latitude": 17.342032, "Longitude": 78.4947192 }, "geometry": { "type": "Point", "coordinates": [ 78.4947192, 17.342032 ] } },
{ "type": "Feature", "properties": { "Location": "18-8-278\/46\/1,RAKSHPURAM COLONY, Yakutpura, Hyderabad, Telangana, India", "Latitude": 17.3388615, "Longitude": 78.4929529 }, "geometry": { "type": "Point", "coordinates": [ 78.4929529, 17.3388615 ] } },
{ "type": "Feature", "properties": { "Location": "18-8-589\/37,EDI BAZAR, Yakutpura, Hyderabad, Telangana, India", "Latitude": 17.3608411, "Longitude": 78.4924775 }, "geometry": { "type": "Point", "coordinates": [ 78.4924775, 17.3608411 ] } },
{ "type": "Feature", "properties": { "Location": "18-8-224\/5\/326,RAJ NARSIMHA COLONY, RIYASATH NAGAR, Yakutpura, Hyderabad, Telangana, India", "Latitude": 17.3383854, "Longitude": 78.4966209 }, "geometry": { "type": "Point", "coordinates": [ 78.4966209, 17.3383854 ] } },
{ "type": "Feature", "properties": { "Location": "18-8-476\/41, Rakshapuram Colocny, Yakutpura, Hyderabad, Telangana, India", "Latitude": 17.3375902, "Longitude": 78.4971121 }, "geometry": { "type": "Point", "coordinates": [ 78.4971121, 17.3375902 ] } },
{ "type": "Feature", "properties": { "Location": "18-10-7,BARKAS, Yakutpura, Hyderabad, Telangana, India", "Latitude": 17.3193982, "Longitude": 78.4828349 }, "geometry": { "type": "Point", "coordinates": [ 78.4828349, 17.3193982 ] } },
{ "type": "Feature", "properties": { "Location": "18-13-17\/A,BANDLAGUDA, Yakutpura, Hyderabad, Telangana, India", "Latitude": 17.3062176, "Longitude": 78.463811 }, "geometry": { "type": "Point", "coordinates": [ 78.463811, 17.3062176 ] } },
{ "type": "Feature", "properties": { "Location": "18-12-418\/10\/B\/21,HAFEZ BABA NAGAR, Yakutpura, Hyderabad, Telangana, India", "Latitude": 17.3595152, "Longitude": 78.4851396 }, "geometry": { "type": "Point", "coordinates": [ 78.4851396, 17.3595152 ] } },
{ "type": "Feature", "properties": { "Location": "11-3-296\/8\/1, Sec-bad, Secunderabad, Hyderabad, Telangana, India", "Latitude": 17.4443675, "Longitude": 78.5655914 }, "geometry": { "type": "Point", "coordinates": [ 78.5655914, 17.4443675 ] } },
{ "type": "Feature", "properties": { "Location": "9-2-720, Sec-bad, Secunderabad, Hyderabad, Telangana, India", "Latitude": 17.4348803, "Longitude": 78.501381 }, "geometry": { "type": "Point", "coordinates": [ 78.501381, 17.4348803 ] } },
{ "type": "Feature", "properties": { "Location": "11-3-267\/20, PARSIGUTTA, Secunderabad, Hyderabad, Telangana, India", "Latitude": 17.415249, "Longitude": 78.5111665 }, "geometry": { "type": "Point", "coordinates": [ 78.5111665, 17.415249 ] } },
{ "type": "Feature", "properties": { "Location": "6-1-130, Sec-bad, Secunderabad, Hyderabad, Telangana, India", "Latitude": 17.4233775, "Longitude": 78.5081278 }, "geometry": { "type": "Point", "coordinates": [ 78.5081278, 17.4233775 ] } },
{ "type": "Feature", "properties": { "Location": "1-6-943, MUSHEERABAD, Secunderabad, Hyderabad, Telangana, India", "Latitude": 17.4198671, "Longitude": 78.5032256 }, "geometry": { "type": "Point", "coordinates": [ 78.5032256, 17.4198671 ] } },
{ "type": "Feature", "properties": { "Location": "1-5-6\/4, BAKARAM, Secunderabad, Hyderabad, Telangana, India", "Latitude": 17.416252, "Longitude": 78.4936403 }, "geometry": { "type": "Point", "coordinates": [ 78.4936403, 17.416252 ] } },
{ "type": "Feature", "properties": { "Location": "1-6-212\/65\/107\/93, BAPUJI NAGAR, Secunderabad, Hyderabad, Telangana, India", "Latitude": 17.467963, "Longitude": 78.48473 }, "geometry": { "type": "Point", "coordinates": [ 78.48473, 17.467963 ] } },
{ "type": "Feature", "properties": { "Location": "1-6-212\/64\/B4, MCH COLONY, Secunderabad, Hyderabad, Telangana, India", "Latitude": 17.3966109, "Longitude": 78.5160343 }, "geometry": { "type": "Point", "coordinates": [ 78.5160343, 17.3966109 ] } },
{ "type": "Feature", "properties": { "Location": "1-6-877\/1, MUSHEERABAD, Secunderabad, Hyderabad, Telangana, India", "Latitude": 17.4198671, "Longitude": 78.5032256 }, "geometry": { "type": "Point", "coordinates": [ 78.5032256, 17.4198671 ] } },
{ "type": "Feature", "properties": { "Location": "1-6-222\/12, PARSIGUTTA, Secunderabad, Hyderabad, Telangana, India", "Latitude": 17.4292892, "Longitude": 78.495794 }, "geometry": { "type": "Point", "coordinates": [ 78.495794, 17.4292892 ] } },
{ "type": "Feature", "properties": { "Location": "1-6-212\/65\/85, MCH COLONY PARSIGUTTA, Secunderabad, Hyderabad, Telangana, India", "Latitude": 17.3966109, "Longitude": 78.5160343 }, "geometry": { "type": "Point", "coordinates": [ 78.5160343, 17.3966109 ] } },
{ "type": "Feature", "properties": { "Location": "1-6-197\/32\/1, BAPUJI NAGAR, Secunderabad, Hyderabad, Telangana, India", "Latitude": 17.468346, "Longitude": 78.484168 }, "geometry": { "type": "Point", "coordinates": [ 78.484168, 17.468346 ] } },
{ "type": "Feature", "properties": { "Location": "11-3-267\/19, ASHOK NAGAR, Secunderabad, Hyderabad, Telangana, India", "Latitude": 17.447554, "Longitude": 78.5816385 }, "geometry": { "type": "Point", "coordinates": [ 78.5816385, 17.447554 ] } },
{ "type": "Feature", "properties": { "Location": "11-4-630, SECUNDERABAD, Secunderabad, Hyderabad, Telangana, India", "Latitude": 17.435125, "Longitude": 78.4862673 }, "geometry": { "type": "Point", "coordinates": [ 78.4862673, 17.435125 ] } },
{ "type": "Feature", "properties": { "Location": "11-4-904, SECUNDERABAD, Secunderabad, Hyderabad, Telangana, India", "Latitude": 17.435125, "Longitude": 78.4862673 }, "geometry": { "type": "Point", "coordinates": [ 78.4862673, 17.435125 ] } },
{ "type": "Feature", "properties": { "Location": "11-4-300, SECUNDERABAD, Secunderabad, Hyderabad, Telangana, India", "Latitude": 17.435125, "Longitude": 78.4862673 }, "geometry": { "type": "Point", "coordinates": [ 78.4862673, 17.435125 ] } },
{ "type": "Feature", "properties": { "Location": "11-3-312\/1\/A, PARSIGUTTA, Secunderabad, Hyderabad, Telangana, India", "Latitude": 17.4190507, "Longitude": 78.5086461 }, "geometry": { "type": "Point", "coordinates": [ 78.5086461, 17.4190507 ] } },
{ "type": "Feature", "properties": { "Location": "11-2-130, CHILKALAGUDA, SEC-BAD, Secunderabad, Hyderabad, Telangana, India", "Latitude": 17.4285599, "Longitude": 78.5119672 }, "geometry": { "type": "Point", "coordinates": [ 78.5119672, 17.4285599 ] } },
{ "type": "Feature", "properties": { "Location": "12-2-145, MK.NAGAR, Secunderabad, Hyderabad, Telangana, India", "Latitude": 17.4477296, "Longitude": 78.5251314 }, "geometry": { "type": "Point", "coordinates": [ 78.5251314, 17.4477296 ] } },
{ "type": "Feature", "properties": { "Location": "12-10-235\/4,, Secunderabad, Hyderabad, Telangana, India", "Latitude": 17.435125, "Longitude": 78.4862673 }, "geometry": { "type": "Point", "coordinates": [ 78.4862673, 17.435125 ] } },
{ "type": "Feature", "properties": { "Location": "12-10-235\/4, SITAFALMANDI, Secunderabad, Hyderabad, Telangana, India", "Latitude": 17.4260825, "Longitude": 78.520186 }, "geometry": { "type": "Point", "coordinates": [ 78.520186, 17.4260825 ] } },
{ "type": "Feature", "properties": { "Location": "12-10-587, SECBAD, Secunderabad, Hyderabad, Telangana, India", "Latitude": 17.4228873, "Longitude": 78.5177368 }, "geometry": { "type": "Point", "coordinates": [ 78.5177368, 17.4228873 ] } },
{ "type": "Feature", "properties": { "Location": "12-10-590\/85, SECBAD, Secunderabad, Hyderabad, Telangana, India", "Latitude": 17.4399295, "Longitude": 78.4982741 }, "geometry": { "type": "Point", "coordinates": [ 78.4982741, 17.4399295 ] } },
{ "type": "Feature", "properties": { "Location": "12-10-626\/1, INDIRA NAGAR,WARASIGUDA, Secunderabad, Hyderabad, Telangana, India", "Latitude": 17.4195331, "Longitude": 78.5186155 }, "geometry": { "type": "Point", "coordinates": [ 78.5186155, 17.4195331 ] } },
{ "type": "Feature", "properties": { "Location": "11-3-384\/2\/9\/A, PADMA RAO NAGAR, Secunderabad, Hyderabad, Telangana, India", "Latitude": 17.4253893, "Longitude": 78.5163894 }, "geometry": { "type": "Point", "coordinates": [ 78.5163894, 17.4253893 ] } },
{ "type": "Feature", "properties": { "Location": "11-3-298\/1, SRINIVAS NAGAR,, Secunderabad, Hyderabad, Telangana, India", "Latitude": 17.4211077, "Longitude": 78.5104563 }, "geometry": { "type": "Point", "coordinates": [ 78.5104563, 17.4211077 ] } },
{ "type": "Feature", "properties": { "Location": "12-11-1438, BOUDHANAGAR, Secunderabad, Hyderabad, Telangana, India", "Latitude": 17.4186167, "Longitude": 78.518129 }, "geometry": { "type": "Point", "coordinates": [ 78.518129, 17.4186167 ] } },
{ "type": "Feature", "properties": { "Location": "12-11-1447, BOUDHANAGAR, Secunderabad, Hyderabad, Telangana, India", "Latitude": 17.4186167, "Longitude": 78.518129 }, "geometry": { "type": "Point", "coordinates": [ 78.518129, 17.4186167 ] } },
{ "type": "Feature", "properties": { "Location": "12-11-720, Secunderabad, Hyderabad, Telangana, India", "Latitude": 17.4399295, "Longitude": 78.4982741 }, "geometry": { "type": "Point", "coordinates": [ 78.4982741, 17.4399295 ] } },
{ "type": "Feature", "properties": { "Location": "12-11-867, WARASIGUDA, Secunderabad, Hyderabad, Telangana, India", "Latitude": 17.4198169, "Longitude": 78.5171266 }, "geometry": { "type": "Point", "coordinates": [ 78.5171266, 17.4198169 ] } },
{ "type": "Feature", "properties": { "Location": "12-15-1018,MK, NAGAR, Secunderabad, Hyderabad, Telangana, India", "Latitude": 17.4477296, "Longitude": 78.5251314 }, "geometry": { "type": "Point", "coordinates": [ 78.5251314, 17.4477296 ] } },
{ "type": "Feature", "properties": { "Location": "12-15-453\/A, MK, NAGAR, Secunderabad, Hyderabad, Telangana, India", "Latitude": 17.4477296, "Longitude": 78.5251314 }, "geometry": { "type": "Point", "coordinates": [ 78.5251314, 17.4477296 ] } },
{ "type": "Feature", "properties": { "Location": "12-1-275, LALAPET, Secunderabad, Hyderabad, Telangana, India", "Latitude": 17.4370371, "Longitude": 78.541077 }, "geometry": { "type": "Point", "coordinates": [ 78.541077, 17.4370371 ] } },
{ "type": "Feature", "properties": { "Location": "12-14-245\/1, LALAPET, Secunderabad, Hyderabad, Telangana, India", "Latitude": 17.4370371, "Longitude": 78.541077 }, "geometry": { "type": "Point", "coordinates": [ 78.541077, 17.4370371 ] } },
{ "type": "Feature", "properties": { "Location": "12-1-1\/A\/57\/6, LALAPET, Secunderabad, Hyderabad, Telangana, India", "Latitude": 17.4388655, "Longitude": 78.5415953 }, "geometry": { "type": "Point", "coordinates": [ 78.5415953, 17.4388655 ] } },
{ "type": "Feature", "properties": { "Location": "12-1-1310, NORTH LALAGUDA, Secunderabad, Hyderabad, Telangana, India", "Latitude": 17.4366767, "Longitude": 78.5380709 }, "geometry": { "type": "Point", "coordinates": [ 78.5380709, 17.4366767 ] } },
{ "type": "Feature", "properties": { "Location": "12-1-677\/1, SHANTINAGAR, Secunderabad, Hyderabad, Telangana, India", "Latitude": 17.4380861, "Longitude": 78.5387006 }, "geometry": { "type": "Point", "coordinates": [ 78.5387006, 17.4380861 ] } },
{ "type": "Feature", "properties": { "Location": "12-1-875, SHANTINAGAR, Secunderabad, Hyderabad, Telangana, India", "Latitude": 17.3642342, "Longitude": 78.461173 }, "geometry": { "type": "Point", "coordinates": [ 78.461173, 17.3642342 ] } },
{ "type": "Feature", "properties": { "Location": "12-1-1010, LALAGUDA, Secunderabad, Hyderabad, Telangana, India", "Latitude": 17.4385575, "Longitude": 78.5325797 }, "geometry": { "type": "Point", "coordinates": [ 78.5325797, 17.4385575 ] } },
{ "type": "Feature", "properties": { "Location": "12-1-1054, NORTH LALAGUDA, Secunderabad, Hyderabad, Telangana, India", "Latitude": 17.4366767, "Longitude": 78.5380709 }, "geometry": { "type": "Point", "coordinates": [ 78.5380709, 17.4366767 ] } },
{ "type": "Feature", "properties": { "Location": "12-1-1079\/1, NORTH LALAGUDA, Secunderabad, Hyderabad, Telangana, India", "Latitude": 17.4366767, "Longitude": 78.5380709 }, "geometry": { "type": "Point", "coordinates": [ 78.5380709, 17.4366767 ] } },
{ "type": "Feature", "properties": { "Location": "12-5-157, SOUTH LALAGUDA, Secunderabad, Hyderabad, Telangana, India", "Latitude": 17.438127, "Longitude": 78.526518 }, "geometry": { "type": "Point", "coordinates": [ 78.526518, 17.438127 ] } },
{ "type": "Feature", "properties": { "Location": "12-8-464, METTUGUDA, Secunderabad, Hyderabad, Telangana, India", "Latitude": 17.4336168, "Longitude": 78.5233908 }, "geometry": { "type": "Point", "coordinates": [ 78.5233908, 17.4336168 ] } },
{ "type": "Feature", "properties": { "Location": "12-8-181, METTUGUDA, Secunderabad, Hyderabad, Telangana, India", "Latitude": 17.4336168, "Longitude": 78.5233908 }, "geometry": { "type": "Point", "coordinates": [ 78.5233908, 17.4336168 ] } },
{ "type": "Feature", "properties": { "Location": "12-8-388\/6\/1\/A, METTUGUDA, Secunderabad, Hyderabad, Telangana, India", "Latitude": 17.4360326, "Longitude": 78.5185801 }, "geometry": { "type": "Point", "coordinates": [ 78.5185801, 17.4360326 ] } },
{ "type": "Feature", "properties": { "Location": "10-1-690\/1, EAST MARREDPALLY, Secunderabad, Hyderabad, Telangana, India", "Latitude": 17.4438594, "Longitude": 78.518701 }, "geometry": { "type": "Point", "coordinates": [ 78.518701, 17.4438594 ] } },
{ "type": "Feature", "properties": { "Location": "10-4-188\/A, ADDAGUTTA, Secunderabad, Hyderabad, Telangana, India", "Latitude": 17.435276, "Longitude": 78.514777 }, "geometry": { "type": "Point", "coordinates": [ 78.514777, 17.435276 ] } },
{ "type": "Feature", "properties": { "Location": "10-3-10, EAST MARREDPALLY, Secunderabad, Hyderabad, Telangana, India", "Latitude": 17.4441254, "Longitude": 78.5202663 }, "geometry": { "type": "Point", "coordinates": [ 78.5202663, 17.4441254 ] } },
{ "type": "Feature", "properties": { "Location": "10-2-20\/3, WEST MARREDPALLY, Secunderabad, Hyderabad, Telangana, India", "Latitude": 17.4439559, "Longitude": 78.5176021 }, "geometry": { "type": "Point", "coordinates": [ 78.5176021, 17.4439559 ] } },
{ "type": "Feature", "properties": { "Location": "10-5-825\/1, ADDAGUTTA, Secunderabad, Hyderabad, Telangana, India", "Latitude": 17.441577, "Longitude": 78.522198 }, "geometry": { "type": "Point", "coordinates": [ 78.522198, 17.441577 ] } },
{ "type": "Feature", "properties": { "Location": "10-3-108\/1, EAST MARREDPALLY, Secunderabad, Hyderabad, Telangana, India", "Latitude": 17.4439559, "Longitude": 78.5176021 }, "geometry": { "type": "Point", "coordinates": [ 78.5176021, 17.4439559 ] } },
{ "type": "Feature", "properties": { "Location": "12-12-145, MK. NAGAR, Secunderabad, Hyderabad, Telangana, India", "Latitude": 17.4477296, "Longitude": 78.5251314 }, "geometry": { "type": "Point", "coordinates": [ 78.5251314, 17.4477296 ] } },
{ "type": "Feature", "properties": { "Location": "10-3-P42\/B, EAST MARREDPALLY, Secunderabad, Hyderabad, Telangana, India", "Latitude": 17.4439559, "Longitude": 78.5176021 }, "geometry": { "type": "Point", "coordinates": [ 78.5176021, 17.4439559 ] } },
{ "type": "Feature", "properties": { "Location": "12-13-829\/1, TARNAKA, Secunderabad, Hyderabad, Telangana, India", "Latitude": 17.4264528, "Longitude": 78.5373951 }, "geometry": { "type": "Point", "coordinates": [ 78.5373951, 17.4264528 ] } },
{ "type": "Feature", "properties": { "Location": "12-11-885, WARASIGUDA, Secunderabad, Hyderabad, Telangana, India", "Latitude": 17.4198169, "Longitude": 78.5171266 }, "geometry": { "type": "Point", "coordinates": [ 78.5171266, 17.4198169 ] } },
{ "type": "Feature", "properties": { "Location": "10-3-190\/32\/1, EAST MARREDPALLY, Secunderabad, Hyderabad, Telangana, India", "Latitude": 17.4438594, "Longitude": 78.518701 }, "geometry": { "type": "Point", "coordinates": [ 78.518701, 17.4438594 ] } },
{ "type": "Feature", "properties": { "Location": "1-6-212\/65\/107\/142\/5, GP COLONY RAMNAGAR, Secunderabad, Hyderabad, Telangana, India", "Latitude": 17.4788257, "Longitude": 78.4851816 }, "geometry": { "type": "Point", "coordinates": [ 78.4851816, 17.4788257 ] } },
{ "type": "Feature", "properties": { "Location": "11-4-322\/19\/A, SECBAD, Secunderabad, Hyderabad, Telangana, India", "Latitude": 17.4577373, "Longitude": 78.4867236 }, "geometry": { "type": "Point", "coordinates": [ 78.4867236, 17.4577373 ] } },
{ "type": "Feature", "properties": { "Location": "12-11-1412\/2, WARASIGUDA, Secunderabad, Hyderabad, Telangana, India", "Latitude": 17.4198169, "Longitude": 78.5171266 }, "geometry": { "type": "Point", "coordinates": [ 78.5171266, 17.4198169 ] } },
{ "type": "Feature", "properties": { "Location": "10-5-816, ADDAGUTTA, Secunderabad, Hyderabad, Telangana, India", "Latitude": 17.441577, "Longitude": 78.522198 }, "geometry": { "type": "Point", "coordinates": [ 78.522198, 17.441577 ] } },
{ "type": "Feature", "properties": { "Location": "10-4-A\/13, ADDAGUTTA, Secunderabad, Hyderabad, Telangana, India", "Latitude": 17.3985773, "Longitude": 78.5035525 }, "geometry": { "type": "Point", "coordinates": [ 78.5035525, 17.3985773 ] } },
{ "type": "Feature", "properties": { "Location": "10-1-690\/1, EAST MARREDPALLY, Secunderabad, Hyderabad, Telangana, India", "Latitude": 17.4438594, "Longitude": 78.518701 }, "geometry": { "type": "Point", "coordinates": [ 78.518701, 17.4438594 ] } },
{ "type": "Feature", "properties": { "Location": "13-6-437\/10\/A, Khadeer bagh, Hyd, Charminar, Hyderabad, Telangana, India", "Latitude": 17.3615636, "Longitude": 78.4746645 }, "geometry": { "type": "Point", "coordinates": [ 78.4746645, 17.3615636 ] } },
{ "type": "Feature", "properties": { "Location": "13-5-300\/1, Karwan, Hyd, Charminar, Hyderabad, Telangana, India", "Latitude": 17.373933, "Longitude": 78.4492379 }, "geometry": { "type": "Point", "coordinates": [ 78.4492379, 17.373933 ] } },
{ "type": "Feature", "properties": { "Location": "13-6-251\/5\/9, Jaffer guda, Karwan, Charminar, Hyderabad, Telangana, India", "Latitude": 17.3615636, "Longitude": 78.4746645 }, "geometry": { "type": "Point", "coordinates": [ 78.4746645, 17.3615636 ] } },
{ "type": "Feature", "properties": { "Location": "13-6-840,Ramsingh pura, Karwan, Charminar, Hyderabad, Telangana, India", "Latitude": 17.3766537, "Longitude": 78.4378349 }, "geometry": { "type": "Point", "coordinates": [ 78.4378349, 17.3766537 ] } },
{ "type": "Feature", "properties": { "Location": "13-6-346, Ramsinghpura, Hyd, Charminar, Hyderabad, Telangana, India", "Latitude": 17.3766537, "Longitude": 78.4378349 }, "geometry": { "type": "Point", "coordinates": [ 78.4378349, 17.3766537 ] } },
{ "type": "Feature", "properties": { "Location": "13-6-347\/4, Karwan, Hyd, Charminar, Hyderabad, Telangana, India", "Latitude": 17.3757486, "Longitude": 78.432292 }, "geometry": { "type": "Point", "coordinates": [ 78.432292, 17.3757486 ] } },
{ "type": "Feature", "properties": { "Location": "13-5-158\/82\/B, Karwan, Hyd, Charminar, Hyderabad, Telangana, India", "Latitude": 17.373933, "Longitude": 78.4492379 }, "geometry": { "type": "Point", "coordinates": [ 78.4492379, 17.373933 ] } },
{ "type": "Feature", "properties": { "Location": "13-5-580\/5\/1, Karwan, Hyd, Charminar, Hyderabad, Telangana, India", "Latitude": 17.373933, "Longitude": 78.4492379 }, "geometry": { "type": "Point", "coordinates": [ 78.4492379, 17.373933 ] } },
{ "type": "Feature", "properties": { "Location": "13-4-62, Karwan, Hyd, Charminar, Hyderabad, Telangana, India", "Latitude": 17.3615636, "Longitude": 78.4746645 }, "geometry": { "type": "Point", "coordinates": [ 78.4746645, 17.3615636 ] } },
{ "type": "Feature", "properties": { "Location": "13-4-750\/12, Sabjimandi, Karwan, Charminar, Hyderabad, Telangana, India", "Latitude": 17.3714394, "Longitude": 78.4459397 }, "geometry": { "type": "Point", "coordinates": [ 78.4459397, 17.3714394 ] } },
{ "type": "Feature", "properties": { "Location": "19-5-17\/A\/28\/A & 3 Badhurapura, Kishanbagh, Charminar, Hyderabad, Telangana, India", "Latitude": 17.3615636, "Longitude": 78.4746645 }, "geometry": { "type": "Point", "coordinates": [ 78.4746645, 17.3615636 ] } },
{ "type": "Feature", "properties": { "Location": "13-5-832\/11, Sabjimandi, Mustaid, Charminar, Hyderabad, Telangana, India", "Latitude": 17.3714394, "Longitude": 78.4459397 }, "geometry": { "type": "Point", "coordinates": [ 78.4459397, 17.3714394 ] } },
{ "type": "Feature", "properties": { "Location": "13-4-527\/A\/4, Sabjimandi, Hyd, Charminar, Hyderabad, Telangana, India", "Latitude": 17.3714394, "Longitude": 78.4459397 }, "geometry": { "type": "Point", "coordinates": [ 78.4459397, 17.3714394 ] } },
{ "type": "Feature", "properties": { "Location": "13-3-690\/24\/1, Indira Nagar, Jiyaguda, Hyd, Charminar, Hyderabad, Telangana, India", "Latitude": 17.438122, "Longitude": 78.3574019 }, "geometry": { "type": "Point", "coordinates": [ 78.3574019, 17.438122 ] } },
{ "type": "Feature", "properties": { "Location": "13-3-594\/2, Jiyaguda, Hyd, Charminar, Hyderabad, Telangana, India", "Latitude": 17.3678674, "Longitude": 78.4499044 }, "geometry": { "type": "Point", "coordinates": [ 78.4499044, 17.3678674 ] } },
{ "type": "Feature", "properties": { "Location": "13-3-506\/38\/3, Imampura, Hyd, Charminar, Hyderabad, Telangana, India", "Latitude": 17.3615636, "Longitude": 78.4746645 }, "geometry": { "type": "Point", "coordinates": [ 78.4746645, 17.3615636 ] } },
{ "type": "Feature", "properties": { "Location": "13-3-1103\/27, Jiyaguda, Hyd, Charminar, Hyderabad, Telangana, India", "Latitude": 17.3678674, "Longitude": 78.4499044 }, "geometry": { "type": "Point", "coordinates": [ 78.4499044, 17.3678674 ] } },
{ "type": "Feature", "properties": { "Location": "13-3-652\/16\/A, Jiyaguda,Hyd, Charminar, Hyderabad, Telangana, India", "Latitude": 17.3678674, "Longitude": 78.4499044 }, "geometry": { "type": "Point", "coordinates": [ 78.4499044, 17.3678674 ] } },
{ "type": "Feature", "properties": { "Location": "13-3-600\/A\/7, Jiyaguda, Hyd, Charminar, Hyderabad, Telangana, India", "Latitude": 17.367724, "Longitude": 78.448447 }, "geometry": { "type": "Point", "coordinates": [ 78.448447, 17.367724 ] } },
{ "type": "Feature", "properties": { "Location": "13-3-614\/B\/1, Iqbalgunj, Pooranapool, Hyd, Charminar, Hyderabad, Telangana, India", "Latitude": 17.3615636, "Longitude": 78.4746645 }, "geometry": { "type": "Point", "coordinates": [ 78.4746645, 17.3615636 ] } },
{ "type": "Feature", "properties": { "Location": "13-2-142, Jiyaguda, Hyd, Charminar, Hyderabad, Telangana, India", "Latitude": 17.3671316, "Longitude": 78.4506899 }, "geometry": { "type": "Point", "coordinates": [ 78.4506899, 17.3671316 ] } },
{ "type": "Feature", "properties": { "Location": "13-2-360\/17\/A, Shiva Nagar, Raheempura, Hyd, Charminar, Hyderabad, Telangana, India", "Latitude": 17.3716513, "Longitude": 78.4560118 }, "geometry": { "type": "Point", "coordinates": [ 78.4560118, 17.3716513 ] } },
{ "type": "Feature", "properties": { "Location": "13-2-335\/2, Jaalihanuman, Dulpet, Hyd, Charminar, Hyderabad, Telangana, India", "Latitude": 17.3736822, "Longitude": 78.4598171 }, "geometry": { "type": "Point", "coordinates": [ 78.4598171, 17.3736822 ] } },
{ "type": "Feature", "properties": { "Location": "13-2-585, Raheempura, Hyd, Charminar, Hyderabad, Telangana, India", "Latitude": 17.3725807, "Longitude": 78.4578039 }, "geometry": { "type": "Point", "coordinates": [ 78.4578039, 17.3725807 ] } },
{ "type": "Feature", "properties": { "Location": "13-2-610, Puranapool, Hyd, Charminar, Hyderabad, Telangana, India", "Latitude": 17.3615636, "Longitude": 78.4746645 }, "geometry": { "type": "Point", "coordinates": [ 78.4746645, 17.3615636 ] } },
{ "type": "Feature", "properties": { "Location": "19-4-332\/A\/14, Kishan Bagh, Hyd, Charminar, Hyderabad, Telangana, India", "Latitude": 17.3615636, "Longitude": 78.4746645 }, "geometry": { "type": "Point", "coordinates": [ 78.4746645, 17.3615636 ] } },
{ "type": "Feature", "properties": { "Location": "21-1-202, Ghansibazar, Hyd, Charminar, Hyderabad, Telangana, India", "Latitude": 17.3688107, "Longitude": 78.4755021 }, "geometry": { "type": "Point", "coordinates": [ 78.4755021, 17.3688107 ] } },
{ "type": "Feature", "properties": { "Location": "21-2-674\/1, Urdhugalli, Charkamman, Hyd, Charminar, Hyderabad, Telangana, India", "Latitude": 17.3615636, "Longitude": 78.4746645 }, "geometry": { "type": "Point", "coordinates": [ 78.4746645, 17.3615636 ] } },
{ "type": "Feature", "properties": { "Location": "19-4-371\/411\/A, Nandimusai,Kishanbagh,Hyd, Charminar, Hyderabad, Telangana, India", "Latitude": 17.3615636, "Longitude": 78.4746645 }, "geometry": { "type": "Point", "coordinates": [ 78.4746645, 17.3615636 ] } },
{ "type": "Feature", "properties": { "Location": "13-6-421\/A\/19\/A, Kanakadurga nagar, Guddimalkapur, Hyd, Charminar, Hyderabad, Telangana, India", "Latitude": 17.3684773, "Longitude": 78.453647 }, "geometry": { "type": "Point", "coordinates": [ 78.453647, 17.3684773 ] } },
{ "type": "Feature", "properties": { "Location": "21-6-113, Ghansibazar,Hyd, Charminar, Hyderabad, Telangana, India", "Latitude": 17.3655943, "Longitude": 78.4705815 }, "geometry": { "type": "Point", "coordinates": [ 78.4705815, 17.3655943 ] } },
{ "type": "Feature", "properties": { "Location": "21-3-106, Tagarikanaka, Chelapur, Hyd, Charminar, Hyderabad, Telangana, India", "Latitude": 17.363316, "Longitude": 78.469028 }, "geometry": { "type": "Point", "coordinates": [ 78.469028, 17.363316 ] } },
{ "type": "Feature", "properties": { "Location": "13-5-610\/19\/6, Mallmit, Krawan, Hyd, Charminar, Hyderabad, Telangana, India", "Latitude": 17.3615636, "Longitude": 78.4746645 }, "geometry": { "type": "Point", "coordinates": [ 78.4746645, 17.3615636 ] } },
{ "type": "Feature", "properties": { "Location": "Tagged on to 392, Charminar, Hyderabad, Telangana, India", "Latitude": 17.3615636, "Longitude": 78.4746645 }, "geometry": { "type": "Point", "coordinates": [ 78.4746645, 17.3615636 ] } },
{ "type": "Feature", "properties": { "Location": "20-3-696\/2, Tagarikanaka, Hyd, Charminar, Hyderabad, Telangana, India", "Latitude": 17.363316, "Longitude": 78.469028 }, "geometry": { "type": "Point", "coordinates": [ 78.469028, 17.363316 ] } },
{ "type": "Feature", "properties": { "Location": "20-4-973\/15\/3, Kilwath, Hyd, Charminar, Hyderabad, Telangana, India", "Latitude": 17.356399, "Longitude": 78.473038 }, "geometry": { "type": "Point", "coordinates": [ 78.473038, 17.356399 ] } },
{ "type": "Feature", "properties": { "Location": "20-4-639, Shahgunj, Hyd, Charminar, Hyderabad, Telangana, India", "Latitude": 17.3596093, "Longitude": 78.467953 }, "geometry": { "type": "Point", "coordinates": [ 78.467953, 17.3596093 ] } },
{ "type": "Feature", "properties": { "Location": "20-3-778, Jalalkuncha, Hyd, Charminar, Hyderabad, Telangana, India", "Latitude": 17.3614635, "Longitude": 78.4657613 }, "geometry": { "type": "Point", "coordinates": [ 78.4657613, 17.3614635 ] } },
{ "type": "Feature", "properties": { "Location": "20-3-832\/3, Jalalkuncha, Hyd, Charminar, Hyderabad, Telangana, India", "Latitude": 17.3614635, "Longitude": 78.4657613 }, "geometry": { "type": "Point", "coordinates": [ 78.4657613, 17.3614635 ] } },
{ "type": "Feature", "properties": { "Location": "20-3-230\/1, Hussainialam, Hyd, Charminar, Hyderabad, Telangana, India", "Latitude": 17.3575764, "Longitude": 78.4663403 }, "geometry": { "type": "Point", "coordinates": [ 78.4663403, 17.3575764 ] } },
{ "type": "Feature", "properties": { "Location": "20-2-154\/2, Kabutarkhanna, Hyd, Charminar, Hyderabad, Telangana, India", "Latitude": 17.3615636, "Longitude": 78.4746645 }, "geometry": { "type": "Point", "coordinates": [ 78.4746645, 17.3615636 ] } },
{ "type": "Feature", "properties": { "Location": "19-1-947, Gollakidiki, Hyd, Charminar, Hyderabad, Telangana, India", "Latitude": 17.3611507, "Longitude": 78.4599119 }, "geometry": { "type": "Point", "coordinates": [ 78.4599119, 17.3611507 ] } },
{ "type": "Feature", "properties": { "Location": "20-2-606\/6, Baragalli, Hyd, Charminar, Hyderabad, Telangana, India", "Latitude": 17.3615636, "Longitude": 78.4746645 }, "geometry": { "type": "Point", "coordinates": [ 78.4746645, 17.3615636 ] } },
{ "type": "Feature", "properties": { "Location": "21-4-1069, Charmahal, Hyd, Charminar, Hyderabad, Telangana, India", "Latitude": 17.3665689, "Longitude": 78.465646 }, "geometry": { "type": "Point", "coordinates": [ 78.465646, 17.3665689 ] } },
{ "type": "Feature", "properties": { "Location": "20-1-30, Inside Puranapool, Hyd, Charminar, Hyderabad, Telangana, India", "Latitude": 17.3615636, "Longitude": 78.4746645 }, "geometry": { "type": "Point", "coordinates": [ 78.4746645, 17.3615636 ] } },
{ "type": "Feature", "properties": { "Location": "20-1-29, Inside Puranapool, Hyd, Charminar, Hyderabad, Telangana, India", "Latitude": 17.3615636, "Longitude": 78.4746645 }, "geometry": { "type": "Point", "coordinates": [ 78.4746645, 17.3615636 ] } },
{ "type": "Feature", "properties": { "Location": "20-1-606\/2, Inside Puranapool, Hyd, Charminar, Hyderabad, Telangana, India", "Latitude": 17.3615636, "Longitude": 78.4746645 }, "geometry": { "type": "Point", "coordinates": [ 78.4746645, 17.3615636 ] } },
{ "type": "Feature", "properties": { "Location": "19-1-923\/4, Murali nagar, Hyd, Charminar, Hyderabad, Telangana, India", "Latitude": 17.365496, "Longitude": 78.458454 }, "geometry": { "type": "Point", "coordinates": [ 78.458454, 17.365496 ] } },
{ "type": "Feature", "properties": { "Location": "19-1-436\/A\/128\/A, Osmanbagh, Hyd, Charminar, Hyderabad, Telangana, India", "Latitude": 17.3615636, "Longitude": 78.4746645 }, "geometry": { "type": "Point", "coordinates": [ 78.4746645, 17.3615636 ] } },
{ "type": "Feature", "properties": { "Location": "19-1-118\/1, Dhoodhbowli, Hyd, Charminar, Hyderabad, Telangana, India", "Latitude": 17.3615636, "Longitude": 78.4746645 }, "geometry": { "type": "Point", "coordinates": [ 78.4746645, 17.3615636 ] } },
{ "type": "Feature", "properties": { "Location": ", Charminar, Hyderabad, Telangana, India", "Latitude": 17.3642342, "Longitude": 78.461173 }, "geometry": { "type": "Point", "coordinates": [ 78.461173, 17.3642342 ] } },
{ "type": "Feature", "properties": { "Location": "20-3-1, Dhoodhbowli, Hyd, Charminar, Hyderabad, Telangana, India", "Latitude": 17.3615636, "Longitude": 78.4746645 }, "geometry": { "type": "Point", "coordinates": [ 78.4746645, 17.3615636 ] } },
{ "type": "Feature", "properties": { "Location": "13-6-830\/B\/1, Karwan, Hyd, Charminar, Hyderabad, Telangana, India", "Latitude": 17.373962, "Longitude": 78.448474 }, "geometry": { "type": "Point", "coordinates": [ 78.448474, 17.373962 ] } },
{ "type": "Feature", "properties": { "Location": "19-2-691\/1, Dhoodhbowli, Hyd, Charminar, Hyderabad, Telangana, India", "Latitude": 17.3615636, "Longitude": 78.4746645 }, "geometry": { "type": "Point", "coordinates": [ 78.4746645, 17.3615636 ] } },
{ "type": "Feature", "properties": { "Location": "19-1-659, Dhoodhbowli, Hyd, Charminar, Hyderabad, Telangana, India", "Latitude": 17.3615636, "Longitude": 78.4746645 }, "geometry": { "type": "Point", "coordinates": [ 78.4746645, 17.3615636 ] } },
{ "type": "Feature", "properties": { "Location": "19-2-371\/2, Dhoodhbowli, Hyd, Charminar, Hyderabad, Telangana, India", "Latitude": 17.3615636, "Longitude": 78.4746645 }, "geometry": { "type": "Point", "coordinates": [ 78.4746645, 17.3615636 ] } },
{ "type": "Feature", "properties": { "Location": "19-2-11\/32\/A, Misrigunj, Chandulal Baradari, Hyd, Charminar, Hyderabad, Telangana, India", "Latitude": 17.3503675, "Longitude": 78.4592092 }, "geometry": { "type": "Point", "coordinates": [ 78.4592092, 17.3503675 ] } },
{ "type": "Feature", "properties": { "Location": "19-2-123\/2\/E\/3, Kalapathar, Hyd, Charminar, Hyderabad, Telangana, India", "Latitude": 17.3454565, "Longitude": 78.4541684 }, "geometry": { "type": "Point", "coordinates": [ 78.4541684, 17.3454565 ] } },
{ "type": "Feature", "properties": { "Location": "19-4-280\/B\/115\/96, Nawabsab kunta, Hyd, Charminar, Hyderabad, Telangana, India", "Latitude": 17.3163828, "Longitude": 78.3941767 }, "geometry": { "type": "Point", "coordinates": [ 78.3941767, 17.3163828 ] } },
{ "type": "Feature", "properties": { "Location": "19-2-132\/B, Tadban, Hyd, Charminar, Hyderabad, Telangana, India", "Latitude": 17.3471079, "Longitude": 78.4567263 }, "geometry": { "type": "Point", "coordinates": [ 78.4567263, 17.3471079 ] } },
{ "type": "Feature", "properties": { "Location": "19-2-180\/57, Mochi colony, Himayathpura, Hyd, Charminar, Hyderabad, Telangana, India", "Latitude": 17.3484254, "Longitude": 78.4522174 }, "geometry": { "type": "Point", "coordinates": [ 78.4522174, 17.3484254 ] } },
{ "type": "Feature", "properties": { "Location": "19-2-197\/87\/A\/3, Ramnaspura, Hyd, Charminar, Hyderabad, Telangana, India", "Latitude": 17.3615636, "Longitude": 78.4746645 }, "geometry": { "type": "Point", "coordinates": [ 78.4746645, 17.3615636 ] } },
{ "type": "Feature", "properties": { "Location": "19-4-397, Badhurpura, Hyd, Charminar, Hyderabad, Telangana, India", "Latitude": 17.3575068, "Longitude": 78.4567722 }, "geometry": { "type": "Point", "coordinates": [ 78.4567722, 17.3575068 ] } },
{ "type": "Feature", "properties": { "Location": "19-5-15\/6\/4\/5, Badhurpura, Hyd, Charminar, Hyderabad, Telangana, India", "Latitude": 17.3615636, "Longitude": 78.4746645 }, "geometry": { "type": "Point", "coordinates": [ 78.4746645, 17.3615636 ] } },
{ "type": "Feature", "properties": { "Location": "19-4-321\/B, Kishan bagh, Hyd, Charminar, Hyderabad, Telangana, India", "Latitude": 17.357243, "Longitude": 78.4430954 }, "geometry": { "type": "Point", "coordinates": [ 78.4430954, 17.357243 ] } },
{ "type": "Feature", "properties": { "Location": "19-2-369\/C\/6\/A, Chandulal, Hyd, Charminar, Hyderabad, Telangana, India", "Latitude": 17.3615636, "Longitude": 78.4746645 }, "geometry": { "type": "Point", "coordinates": [ 78.4746645, 17.3615636 ] } },
{ "type": "Feature", "properties": { "Location": "19-3-631\/2\/2 & 2\/4, Misrigunj, Hyd, Charminar, Hyderabad, Telangana, India", "Latitude": 17.3503675, "Longitude": 78.4592092 }, "geometry": { "type": "Point", "coordinates": [ 78.4592092, 17.3503675 ] } },
{ "type": "Feature", "properties": { "Location": "19-3-703\/B, Shhakargunj, Hyd, Charminar, Hyderabad, Telangana, India", "Latitude": 17.3615636, "Longitude": 78.4746645 }, "geometry": { "type": "Point", "coordinates": [ 78.4746645, 17.3615636 ] } },
{ "type": "Feature", "properties": { "Location": "20-7-218\/A\/2, Qazipura, Hyd, Charminar, Hyderabad, Telangana, India", "Latitude": 17.3542311, "Longitude": 78.467717 }, "geometry": { "type": "Point", "coordinates": [ 78.467717, 17.3542311 ] } },
{ "type": "Feature", "properties": { "Location": "20-7-321, Fathe Darwaza, Hyd, Charminar, Hyderabad, Telangana, India", "Latitude": 17.3565428, "Longitude": 78.4668211 }, "geometry": { "type": "Point", "coordinates": [ 78.4668211, 17.3565428 ] } },
{ "type": "Feature", "properties": { "Location": "20-5-338, Qazipura, Hyd, Charminar, Hyderabad, Telangana, India", "Latitude": 17.3515324, "Longitude": 78.4693964 }, "geometry": { "type": "Point", "coordinates": [ 78.4693964, 17.3515324 ] } },
{ "type": "Feature", "properties": { "Location": "20-5-664\/1\/1, Qazipura, Hyd, Charminar, Hyderabad, Telangana, India", "Latitude": 17.353243, "Longitude": 78.469038 }, "geometry": { "type": "Point", "coordinates": [ 78.469038, 17.353243 ] } },
{ "type": "Feature", "properties": { "Location": "20-6-545, Syedali, Chabuthra, Hyd, Charminar, Hyderabad, Telangana, India", "Latitude": 17.3463475, "Longitude": 78.4701058 }, "geometry": { "type": "Point", "coordinates": [ 78.4701058, 17.3463475 ] } },
{ "type": "Feature", "properties": { "Location": "13-6-343\/1\/B, Ram Singhpura, Hyd, Charminar, Hyderabad, Telangana, India", "Latitude": 17.431473, "Longitude": 78.4466771 }, "geometry": { "type": "Point", "coordinates": [ 78.4466771, 17.431473 ] } },
{ "type": "Feature", "properties": { "Location": "19-3-992\/993, shamshergunj, Hyd, Charminar, Hyderabad, Telangana, India", "Latitude": 17.3416416, "Longitude": 78.4673143 }, "geometry": { "type": "Point", "coordinates": [ 78.4673143, 17.3416416 ] } },
{ "type": "Feature", "properties": { "Location": "19-3-528\/A\/40, Payeembagh, Jannuma, Hyd, Charminar, Hyderabad, Telangana, India", "Latitude": 17.3615636, "Longitude": 78.4746645 }, "geometry": { "type": "Point", "coordinates": [ 78.4746645, 17.3615636 ] } },
{ "type": "Feature", "properties": { "Location": "19-3-306\/12\/B, Madina colony, Hyd, Charminar, Hyderabad, Telangana, India", "Latitude": 17.3354233, "Longitude": 78.4674619 }, "geometry": { "type": "Point", "coordinates": [ 78.4674619, 17.3354233 ] } },
{ "type": "Feature", "properties": { "Location": "19-3-294\/1\/4\/A, Vatteepally, Hyd, Charminar, Hyderabad, Telangana, India", "Latitude": 17.3615636, "Longitude": 78.4746645 }, "geometry": { "type": "Point", "coordinates": [ 78.4746645, 17.3615636 ] } },
{ "type": "Feature", "properties": { "Location": "19-5-432\/2, Kishan bagh, X Roads, Hyd, Charminar, Hyderabad, Telangana, India", "Latitude": 17.3632477, "Longitude": 78.4445718 }, "geometry": { "type": "Point", "coordinates": [ 78.4445718, 17.3632477 ] } },
{ "type": "Feature", "properties": { "Location": "19-3-262\/50\/9, Janunuma, Falakunama,Hyd, Charminar, Hyderabad, Telangana, India", "Latitude": 17.3615636, "Longitude": 78.4746645 }, "geometry": { "type": "Point", "coordinates": [ 78.4746645, 17.3615636 ] } },
{ "type": "Feature", "properties": { "Location": "19-4-279\/E\/20, Nawabsabkunta, Hyd, Charminar, Hyderabad, Telangana, India", "Latitude": 17.3615636, "Longitude": 78.4746645 }, "geometry": { "type": "Point", "coordinates": [ 78.4746645, 17.3615636 ] } },
{ "type": "Feature", "properties": { "Location": "19-2-143\/4, Ramnaspura, Hyd, Charminar, Hyderabad, Telangana, India", "Latitude": 17.3470096, "Longitude": 78.4537641 }, "geometry": { "type": "Point", "coordinates": [ 78.4537641, 17.3470096 ] } },
{ "type": "Feature", "properties": { "Location": "13-5-431\/12, Tallagada, Kulsumpura, Hyd, Charminar, Hyderabad, Telangana, India", "Latitude": 17.3810472, "Longitude": 78.4386563 }, "geometry": { "type": "Point", "coordinates": [ 78.4386563, 17.3810472 ] } },
{ "type": "Feature", "properties": { "Location": "13-6-243\/1\/A, Ramsinghpura, Hyd, Charminar, Hyderabad, Telangana, India", "Latitude": 17.3766537, "Longitude": 78.4378349 }, "geometry": { "type": "Point", "coordinates": [ 78.4378349, 17.3766537 ] } },
{ "type": "Feature", "properties": { "Location": "13-3-506\/18\/106, Jiyaguda, Hyd, Charminar, Hyderabad, Telangana, India", "Latitude": 17.3615636, "Longitude": 78.4746645 }, "geometry": { "type": "Point", "coordinates": [ 78.4746645, 17.3615636 ] } },
{ "type": "Feature", "properties": { "Location": "19-2-18\/C\/4, Kalapathar, Hyd, Charminar, Hyderabad, Telangana, India", "Latitude": 17.3454565, "Longitude": 78.4541684 }, "geometry": { "type": "Point", "coordinates": [ 78.4541684, 17.3454565 ] } },
{ "type": "Feature", "properties": { "Location": "19-2-238\/3\/H, Rahmathpura, Hyd, Charminar, Hyderabad, Telangana, India", "Latitude": 18.8012357, "Longitude": 78.9072531 }, "geometry": { "type": "Point", "coordinates": [ 78.9072531, 18.8012357 ] } },
{ "type": "Feature", "properties": { "Location": "21-4-835, Puranapool, Hyd, Charminar, Hyderabad, Telangana, India", "Latitude": 17.3615636, "Longitude": 78.4746645 }, "geometry": { "type": "Point", "coordinates": [ 78.4746645, 17.3615636 ] } },
{ "type": "Feature", "properties": { "Location": "19-4-322\/6, Kishanbagh, Hyd, Charminar, Hyderabad, Telangana, India", "Latitude": 17.357243, "Longitude": 78.4430954 }, "geometry": { "type": "Point", "coordinates": [ 78.4430954, 17.357243 ] } },