{
"type": "FeatureCollection",
"crs": { "type": "name", "properties": { "name": "urn:ogc:def:crs:OGC:1.3:CRS84" } },
"features": [
{ "type": "Feature", "properties": { "Camp": "Sai Ram Nagar Community Hall", "Ward": "Kapra", "City": "Hyderabad, Telangana, India", "Location": "Sai Ram Nagar Community Hall, Kapra, Hyderabad, Telangana, India", "Latitude": 17.381591, "Longitude": 78.561089 }, "geometry": { "type": "Point", "coordinates": [ 78.561089, 17.381591 ] } },
{ "type": "Feature", "properties": { "Camp": "Val Var Nagar Community Hall", "Ward": "Kapra", "City": "Hyderabad, Telangana, India", "Location": "Val Var Nagar Community Hall, Kapra, Hyderabad, Telangana, India", "Latitude": 17.4887947, "Longitude": 78.5716674 }, "geometry": { "type": "Point", "coordinates": [ 78.5716674, 17.4887947 ] } },
{ "type": "Feature", "properties": { "Camp": "Mahesh Nagar Ward Office \/ Kamala\nNagar Welfare Association", "Ward": "A.S.Rao Nagar", "City": "Hyderabad, Telangana, India", "Location": "Mahesh Nagar Ward Office \/ Kamala\nNagar Welfare Association, A.S.Rao Nagar, Hyderabad, Telangana, India", "Latitude": 17.4723205, "Longitude": 78.5661185 }, "geometry": { "type": "Point", "coordinates": [ 78.5661185, 17.4723205 ] } },
{ "type": "Feature", "properties": { "Camp": "Kushaiguda Mahila Mandal Building", "Ward": "Cherlapally", "City": "Hyderabad, Telangana, India", "Location": "Kushaiguda Mahila Mandal Building, Cherlapally, Hyderabad, Telangana, India", "Latitude": 17.4803978, "Longitude": 78.5696423 }, "geometry": { "type": "Point", "coordinates": [ 78.5696423, 17.4803978 ] } },
{ "type": "Feature", "properties": { "Camp": "NTR nagar Hall(kummari Basthi", "Ward": "Meerpet HB", "City": "Hyderabad, Telangana, India", "Location": "NTR nagar Hall(kummari Basthi, Meerpet HB, Hyderabad, Telangana, India", "Latitude": 17.3282986, "Longitude": 78.5265184 }, "geometry": { "type": "Point", "coordinates": [ 78.5265184, 17.3282986 ] } },
{ "type": "Feature", "properties": { "Camp": "Marriguda Community Hall", "Ward": "Mallapur", "City": "Hyderabad, Telangana, India", "Location": "Marriguda Community Hall, Mallapur, Hyderabad, Telangana, India", "Latitude": 17.4473624, "Longitude": 78.5721752 }, "geometry": { "type": "Point", "coordinates": [ 78.5721752, 17.4473624 ] } },
{ "type": "Feature", "properties": { "Camp": "Annapurna Colony, Community Hall,\nNacharam", "Ward": "Nacharam", "City": "Hyderabad, Telangana, India", "Location": "Annapurna Colony, Community Hall,\nNacharam, Nacharam, Hyderabad, Telangana, India", "Latitude": 17.4216581, "Longitude": 78.5489828 }, "geometry": { "type": "Point", "coordinates": [ 78.5489828, 17.4216581 ] } },
{ "type": "Feature", "properties": { "Camp": "SC Community Hall Chilkanagar", "Ward": "Chiluka Nagar", "City": "Hyderabad, Telangana, India", "Location": "SC Community Hall Chilkanagar, Chiluka Nagar, Hyderabad, Telangana, India", "Latitude": 17.4210337, "Longitude": 78.5697397 }, "geometry": { "type": "Point", "coordinates": [ 78.5697397, 17.4210337 ] } },
{ "type": "Feature", "properties": { "Camp": "Srinivasapuram Community Hall", "Ward": "Habsiguda", "City": "Hyderabad, Telangana, India", "Location": "Srinivasapuram Community Hall, Habsiguda, Hyderabad, Telangana, India", "Latitude": 17.388452, "Longitude": 78.530717 }, "geometry": { "type": "Point", "coordinates": [ 78.530717, 17.388452 ] } },
{ "type": "Feature", "properties": { "Camp": "Bharathnagar Community Hall,\nRamanthapur", "Ward": "Ramanthapur", "City": "Hyderabad, Telangana, India", "Location": "Bharathnagar Community Hall,\nRamanthapur, Ramanthapur, Hyderabad, Telangana, India", "Latitude": 17.3919849, "Longitude": 78.5381043 }, "geometry": { "type": "Point", "coordinates": [ 78.5381043, 17.3919849 ] } },
{ "type": "Feature", "properties": { "Camp": "Devendranagar  New Community\nHall", "Ward": "Uppal", "City": "Hyderabad, Telangana, India", "Location": "Devendranagar  New Community\nHall, Uppal, Hyderabad, Telangana, India", "Latitude": null, "Longitude": null }, "geometry": null },
{ "type": "Feature", "properties": { "Camp": "Venkata Ramana Colony Residents\nWelfare Association Building", "Ward": "Nagole", "City": "Hyderabad, Telangana, India", "Location": "Venkata Ramana Colony Residents\nWelfare Association Building, Nagole, Hyderabad, Telangana, India", "Latitude": 17.3789887, "Longitude": 78.5620402 }, "geometry": { "type": "Point", "coordinates": [ 78.5620402, 17.3789887 ] } },
{ "type": "Feature", "properties": { "Camp": "Mallikarjuna Nagar Community Hall", "Ward": "Mansoorabad", "City": "Hyderabad, Telangana, India", "Location": "Mallikarjuna Nagar Community Hall, Mansoorabad, Hyderabad, Telangana, India", "Latitude": 17.3415476, "Longitude": 78.5661893 }, "geometry": { "type": "Point", "coordinates": [ 78.5661893, 17.3415476 ] } },
{ "type": "Feature", "properties": { "Camp": "Sharadha Nagar Community Hall", "Ward": "Hayathnagar", "City": "Hyderabad, Telangana, India", "Location": "Sharadha Nagar Community Hall, Hayathnagar, Hyderabad, Telangana, India", "Latitude": 17.3195286, "Longitude": 78.5953034 }, "geometry": { "type": "Point", "coordinates": [ 78.5953034, 17.3195286 ] } },
{ "type": "Feature", "properties": { "Camp": "GHMC ward office", "Ward": "B.N Reddy Nagar", "City": "Hyderabad, Telangana, India", "Location": "GHMC ward office, B.N Reddy Nagar, Hyderabad, Telangana, India", "Latitude": 17.3466538, "Longitude": 78.5346441 }, "geometry": { "type": "Point", "coordinates": [ 78.5346441, 17.3466538 ] } },
{ "type": "Feature", "properties": { "Camp": "Nagarjuna Colony Community Hall", "Ward": "Vanasthalipuram", "City": "Hyderabad, Telangana, India", "Location": "Nagarjuna Colony Community Hall, Vanasthalipuram, Hyderabad, Telangana, India", "Latitude": 17.3201264, "Longitude": 78.5721507 }, "geometry": { "type": "Point", "coordinates": [ 78.5721507, 17.3201264 ] } },
{ "type": "Feature", "properties": { "Camp": "Indhra Prastha Colony Community\nHall", "Ward": "Hastinapuram", "City": "Hyderabad, Telangana, India", "Location": "Indhra Prastha Colony Community\nHall, Hastinapuram, Hyderabad, Telangana, India", "Latitude": 17.3300936, "Longitude": 78.5478126 }, "geometry": { "type": "Point", "coordinates": [ 78.5478126, 17.3300936 ] } },
{ "type": "Feature", "properties": { "Camp": "Kranthi Nagar Community Hall\nKarmanghat  (Kranthi Club)", "Ward": "Champapet", "City": "Hyderabad, Telangana, India", "Location": "Kranthi Nagar Community Hall\nKarmanghat  (Kranthi Club), Champapet, Hyderabad, Telangana, India", "Latitude": 17.3418756, "Longitude": 78.5307535 }, "geometry": { "type": "Point", "coordinates": [ 78.5307535, 17.3418756 ] } },
{ "type": "Feature", "properties": { "Camp": "SBH Venture-III Community Hall", "Ward": "Lingojiguda", "City": "Hyderabad, Telangana, India", "Location": "SBH Venture-III Community Hall, Lingojiguda, Hyderabad, Telangana, India", "Latitude": 17.3525585, "Longitude": 78.534077 }, "geometry": { "type": "Point", "coordinates": [ 78.534077, 17.3525585 ] } },
{ "type": "Feature", "properties": { "Camp": "Doctors Colony Community Hall", "Ward": "Saroornagar", "City": "Hyderabad, Telangana, India", "Location": "Doctors Colony Community Hall, Saroornagar, Hyderabad, Telangana, India", "Latitude": 17.3551359, "Longitude": 78.5449602 }, "geometry": { "type": "Point", "coordinates": [ 78.5449602, 17.3551359 ] } },
{ "type": "Feature", "properties": { "Camp": "Haripuri Colony Community Hall", "Ward": "R.K Puram", "City": "Hyderabad, Telangana, India", "Location": "Haripuri Colony Community Hall, R.K Puram, Hyderabad, Telangana, India", "Latitude": 17.3640017, "Longitude": 78.5461654 }, "geometry": { "type": "Point", "coordinates": [ 78.5461654, 17.3640017 ] } },
{ "type": "Feature", "properties": { "Camp": "Janapriya Quarters Community Hall", "Ward": "Kothapet", "City": "Hyderabad, Telangana, India", "Location": "Janapriya Quarters Community Hall, Kothapet, Hyderabad, Telangana, India", "Latitude": 17.3774196, "Longitude": 78.550557 }, "geometry": { "type": "Point", "coordinates": [ 78.550557, 17.3774196 ] } },
{ "type": "Feature", "properties": { "Camp": "Senior Citizens Community Hall, Sai\nNagar", "Ward": "Chaitanyapuri", "City": "Hyderabad, Telangana, India", "Location": "Senior Citizens Community Hall, Sai\nNagar, Chaitanyapuri, Hyderabad, Telangana, India", "Latitude": 17.3752909, "Longitude": 78.5301295 }, "geometry": { "type": "Point", "coordinates": [ 78.5301295, 17.3752909 ] } },
{ "type": "Feature", "properties": { "Camp": "Kodandaram Nagar Community Hall", "Ward": "Gaddiannaram", "City": "Hyderabad, Telangana, India", "Location": "Kodandaram Nagar Community Hall, Gaddiannaram, Hyderabad, Telangana, India", "Latitude": 17.3601849, "Longitude": 78.5273308 }, "geometry": { "type": "Point", "coordinates": [ 78.5273308, 17.3601849 ] } },
{ "type": "Feature", "properties": { "Camp": "SBH - Padmavathi Kalyana\nMandapam", "Ward": "Saidabad", "City": "Hyderabad, Telangana, India", "Location": "SBH - Padmavathi Kalyana\nMandapam, Saidabad, Hyderabad, Telangana, India", "Latitude": 17.3628806, "Longitude": 78.5190333 }, "geometry": { "type": "Point", "coordinates": [ 78.5190333, 17.3628806 ] } },
{ "type": "Feature", "properties": { "Camp": "Sripuram Colony, Opp:(Indoor\nBadminton Ground)", "Ward": "Moosarambagh", "City": "Hyderabad, Telangana, India", "Location": "Sripuram Colony, Opp:(Indoor\nBadminton Ground), Moosarambagh, Hyderabad, Telangana, India", "Latitude": 17.376607, "Longitude": 78.514652 }, "geometry": { "type": "Point", "coordinates": [ 78.514652, 17.376607 ] } },
{ "type": "Feature", "properties": { "Camp": "Prince Body Guard Community Hall", "Ward": "Old Malakpet", "City": "Hyderabad, Telangana, India", "Location": "Prince Body Guard Community Hall, Old Malakpet, Hyderabad, Telangana, India", "Latitude": 17.3781479, "Longitude": 78.5061524 }, "geometry": { "type": "Point", "coordinates": [ 78.5061524, 17.3781479 ] } },
{ "type": "Feature", "properties": { "Camp": "Anand Nagar Mahila Mandali\nCommunity Hall", "Ward": "Akberbagh", "City": "Hyderabad, Telangana, India", "Location": "Anand Nagar Mahila Mandali\nCommunity Hall, Akberbagh, Hyderabad, Telangana, India", "Latitude": 17.4145032, "Longitude": 78.4529916 }, "geometry": { "type": "Point", "coordinates": [ 78.4529916, 17.4145032 ] } },
{ "type": "Feature", "properties": { "Camp": "DoodKhana Ground Community Hall", "Ward": "Azampura", "City": "Hyderabad, Telangana, India", "Location": "DoodKhana Ground Community Hall, Azampura, Hyderabad, Telangana, India", "Latitude": 17.3696718, "Longitude": 78.4926471 }, "geometry": { "type": "Point", "coordinates": [ 78.4926471, 17.3696718 ] } },
{ "type": "Feature", "properties": { "Camp": "Govt. Junior College", "Ward": "Chawani", "City": "Hyderabad, Telangana, India", "Location": "Govt. Junior College, Chawani, Hyderabad, Telangana, India", "Latitude": 17.4811111, "Longitude": 78.415439 }, "geometry": { "type": "Point", "coordinates": [ 78.415439, 17.4811111 ] } },
{ "type": "Feature", "properties": { "Camp": "Bala Shetty Khaith play ground, 1st\nand 2nd Floor", "Ward": "Dabeerpura", "City": "Hyderabad, Telangana, India", "Location": "Bala Shetty Khaith play ground, 1st\nand 2nd Floor, Dabeerpura, Hyderabad, Telangana, India", "Latitude": 17.3655876, "Longitude": 78.485669 }, "geometry": { "type": "Point", "coordinates": [ 78.485669, 17.3655876 ] } },
{ "type": "Feature", "properties": { "Camp": "Rein Bazar Murtuza Nagar Play\nGround", "Ward": "Rein Bazar", "City": "Hyderabad, Telangana, India", "Location": "Rein Bazar Murtuza Nagar Play\nGround, Rein Bazar, Hyderabad, Telangana, India", "Latitude": 17.3591354, "Longitude": 78.4877836 }, "geometry": { "type": "Point", "coordinates": [ 78.4877836, 17.3591354 ] } },
{ "type": "Feature", "properties": { "Camp": "Model Market", "Ward": "Talabchanchalam", "City": "Hyderabad, Telangana, India", "Location": "Model Market, Talabchanchalam, Hyderabad, Telangana, India", "Latitude": 17.385044, "Longitude": 78.486671 }, "geometry": { "type": "Point", "coordinates": [ 78.486671, 17.385044 ] } },
{ "type": "Feature", "properties": { "Camp": "Vikas Nagar Community Hall", "Ward": "Kurmaguda", "City": "Hyderabad, Telangana, India", "Location": "Vikas Nagar Community Hall, Kurmaguda, Hyderabad, Telangana, India", "Latitude": 17.3687826, "Longitude": 78.5246707 }, "geometry": { "type": "Point", "coordinates": [ 78.5246707, 17.3687826 ] } },
{ "type": "Feature", "properties": { "Camp": "RTC Colony Community Hall", "Ward": "IS Sadan", "City": "Hyderabad, Telangana, India", "Location": "RTC Colony Community Hall, IS Sadan, Hyderabad, Telangana, India", "Latitude": 17.3510621, "Longitude": 78.5534648 }, "geometry": { "type": "Point", "coordinates": [ 78.5534648, 17.3510621 ] } },
{ "type": "Feature", "properties": { "Camp": "Santhosh Nagar Masquati Grounds", "Ward": "Santosh Nagar", "City": "Hyderabad, Telangana, India", "Location": "Santhosh Nagar Masquati Grounds, Santosh Nagar, Hyderabad, Telangana, India", "Latitude": 17.3509341, "Longitude": 78.5036525 }, "geometry": { "type": "Point", "coordinates": [ 78.5036525, 17.3509341 ] } },
{ "type": "Feature", "properties": { "Camp": "Tanaji Nagar Community Hall", "Ward": "Lalithabagh", "City": "Hyderabad, Telangana, India", "Location": "Tanaji Nagar Community Hall, Lalithabagh, Hyderabad, Telangana, India", "Latitude": 17.3528599, "Longitude": 78.5072936 }, "geometry": { "type": "Point", "coordinates": [ 78.5072936, 17.3528599 ] } },
{ "type": "Feature", "properties": { "Camp": "Moin Bagh Ward Office", "Ward": "Riyasath Nagar", "City": "Hyderabad, Telangana, India", "Location": "Moin Bagh Ward Office, Riyasath Nagar, Hyderabad, Telangana, India", "Latitude": 17.3456055, "Longitude": 78.4942618 }, "geometry": { "type": "Point", "coordinates": [ 78.4942618, 17.3456055 ] } },
{ "type": "Feature", "properties": { "Camp": "Upper Primary Health Center, beside Community Hall, Hafeez Baba Nagar", "Ward": "Kanchanbagh", "City": "Hyderabad, Telangana, India", "Location": "Upper Primary Health Center, beside Community Hall, Hafeez Baba Nagar, Kanchanbagh, Hyderabad, Telangana, India", "Latitude": 17.3234309, "Longitude": 78.4919763 }, "geometry": { "type": "Point", "coordinates": [ 78.4919763, 17.3234309 ] } },
{ "type": "Feature", "properties": { "Camp": "UPHC, Ghouse Nagar, Barkas", "Ward": "Barkas", "City": "Hyderabad, Telangana, India", "Location": "UPHC, Ghouse Nagar, Barkas, Barkas, Hyderabad, Telangana, India", "Latitude": 17.2999772, "Longitude": 78.4647683 }, "geometry": { "type": "Point", "coordinates": [ 78.4647683, 17.2999772 ] } },
{ "type": "Feature", "properties": { "Camp": "Unani Hospital\/UPHC, 2 rooms in\nHospital", "Ward": "Chandrayangutta", "City": "Hyderabad, Telangana, India", "Location": "Unani Hospital\/UPHC, 2 rooms in\nHospital, Chandrayangutta, Hyderabad, Telangana, India", "Latitude": 17.3274166, "Longitude": 78.4778701 }, "geometry": { "type": "Point", "coordinates": [ 78.4778701, 17.3274166 ] } },
{ "type": "Feature", "properties": { "Camp": "Ashok Nagar Community Hall\n(Harjana Basthi)", "Ward": "Uppuguda", "City": "Hyderabad, Telangana, India", "Location": "Ashok Nagar Community Hall\n(Harjana Basthi), Uppuguda, Hyderabad, Telangana, India", "Latitude": 17.4062834, "Longitude": 78.489987 }, "geometry": { "type": "Point", "coordinates": [ 78.489987, 17.4062834 ] } },
{ "type": "Feature", "properties": { "Camp": "Govt Primary School,Near Gazi -e- Millat Colony, Near Nalla Vagu\nGrave Yard", "Ward": "Jangammet", "City": "Hyderabad, Telangana, India", "Location": "Govt Primary School,Near Gazi -e- Millat Colony, Near Nalla Vagu\nGrave Yard, Jangammet, Hyderabad, Telangana, India", "Latitude": 17.333589, "Longitude": 78.480195 }, "geometry": { "type": "Point", "coordinates": [ 78.480195, 17.333589 ] } },
{ "type": "Feature", "properties": { "Camp": "Community Hall Darabjung galli", "Ward": "Pathergatti", "City": "Hyderabad, Telangana, India", "Location": "Community Hall Darabjung galli, Pathergatti, Hyderabad, Telangana, India", "Latitude": 17.3528599, "Longitude": 78.5072936 }, "geometry": { "type": "Point", "coordinates": [ 78.5072936, 17.3528599 ] } },
{ "type": "Feature", "properties": { "Camp": "Sultan Shahi Play Ground,\nMetharwadi", "Ward": "Moghalpura", "City": "Hyderabad, Telangana, India", "Location": "Sultan Shahi Play Ground,\nMetharwadi, Moghalpura, Hyderabad, Telangana, India", "Latitude": 17.3504963, "Longitude": 78.4812594 }, "geometry": { "type": "Point", "coordinates": [ 78.4812594, 17.3504963 ] } },
{ "type": "Feature", "properties": { "Camp": "Aliabad UPHC, Buchiman Thati", "Ward": "Shalibanda", "City": "Hyderabad, Telangana, India", "Location": "Aliabad UPHC, Buchiman Thati, Shalibanda, Hyderabad, Telangana, India", "Latitude": 17.3497919, "Longitude": 78.4680902 }, "geometry": { "type": "Point", "coordinates": [ 78.4680902, 17.3497919 ] } },
{ "type": "Feature", "properties": { "Camp": "Jagadeesh Bhavan", "Ward": "Ghansi Bazar", "City": "Hyderabad, Telangana, India", "Location": "Jagadeesh Bhavan, Ghansi Bazar, Hyderabad, Telangana, India", "Latitude": 17.3662811, "Longitude": 78.4723972 }, "geometry": { "type": "Point", "coordinates": [ 78.4723972, 17.3662811 ] } },
{ "type": "Feature", "properties": { "Camp": "Malladi Thaleem Community Hal", "Ward": "Puranapul", "City": "Hyderabad, Telangana, India", "Location": "Malladi Thaleem Community Hal, Puranapul, Hyderabad, Telangana, India", "Latitude": 17.3638521, "Longitude": 78.4595644 }, "geometry": { "type": "Point", "coordinates": [ 78.4595644, 17.3638521 ] } },
{ "type": "Feature", "properties": { "Camp": "Fatima nagar Community Hall", "Ward": "Falaknama", "City": "Hyderabad, Telangana, India", "Location": "Fatima nagar Community Hall, Falaknama, Hyderabad, Telangana, India", "Latitude": 17.3343752, "Longitude": 78.4724138 }, "geometry": { "type": "Point", "coordinates": [ 78.4724138, 17.3343752 ] } },
{ "type": "Feature", "properties": { "Camp": "Achiredy Nagar Community Hall", "Ward": "Nawabsahebkunta", "City": "Hyderabad, Telangana, India", "Location": "Achiredy Nagar Community Hall, Nawabsahebkunta, Hyderabad, Telangana, India", "Latitude": 17.3328986, "Longitude": 78.4558577 }, "geometry": { "type": "Point", "coordinates": [ 78.4558577, 17.3328986 ] } },
{ "type": "Feature", "properties": { "Camp": "Devi Bagh Community Hall", "Ward": "Doodbowli", "City": "Hyderabad, Telangana, India", "Location": "Devi Bagh Community Hall, Doodbowli, Hyderabad, Telangana, India", "Latitude": 17.3902001, "Longitude": 78.4910163 }, "geometry": { "type": "Point", "coordinates": [ 78.4910163, 17.3902001 ] } },
{ "type": "Feature", "properties": { "Camp": "Sanjay gandhi  Community Hall\nMeer sagar", "Ward": "Jahanuma", "City": "Hyderabad, Telangana, India", "Location": "Sanjay gandhi  Community Hall\nMeer sagar, Jahanuma, Hyderabad, Telangana, India", "Latitude": 17.4756098, "Longitude": 78.5107194 }, "geometry": { "type": "Point", "coordinates": [ 78.5107194, 17.4756098 ] } },
{ "type": "Feature", "properties": { "Camp": "QQ Polytechnic College", "Ward": "Ramnasturapura", "City": "Hyderabad, Telangana, India", "Location": "QQ Polytechnic College, Ramnasturapura, Hyderabad, Telangana, India", "Latitude": 17.3515124, "Longitude": 78.4571148 }, "geometry": { "type": "Point", "coordinates": [ 78.4571148, 17.3515124 ] } },
{ "type": "Feature", "properties": { "Camp": "Darga Wahed Piya Asad baba nagar", "Ward": "Kishan Bagh", "City": "Hyderabad, Telangana, India", "Location": "Darga Wahed Piya Asad baba nagar, Kishan Bagh, Hyderabad, Telangana, India", "Latitude": 17.3608004, "Longitude": 78.4446426 }, "geometry": { "type": "Point", "coordinates": [ 78.4446426, 17.3608004 ] } },
{ "type": "Feature", "properties": { "Camp": "Setwin institute Suleman Nagar", "Ward": "Sulemannagar ", "City": "Hyderabad, Telangana, India", "Location": "Setwin institute Suleman Nagar, Sulemannagar , Hyderabad, Telangana, India", "Latitude": 17.3573059, "Longitude": 78.4725761 }, "geometry": { "type": "Point", "coordinates": [ 78.4725761, 17.3573059 ] } },
{ "type": "Feature", "properties": { "Camp": "Sanitation ward office (temperorary),\nShastripuram", "Ward": "Shastripuram", "City": "Hyderabad, Telangana, India", "Location": "Sanitation ward office (temperorary),\nShastripuram, Shastripuram, Hyderabad, Telangana, India", "Latitude": 17.3496066, "Longitude": 78.649334 }, "geometry": { "type": "Point", "coordinates": [ 78.649334, 17.3496066 ] } },
{ "type": "Feature", "properties": { "Camp": "Nethaji Youth Club, Shivarampally", "Ward": "Rajendra Nagar", "City": "Hyderabad, Telangana, India", "Location": "Nethaji Youth Club, Shivarampally, Rajendra Nagar, Hyderabad, Telangana, India", "Latitude": 17.3269838, "Longitude": 78.4280038 }, "geometry": { "type": "Point", "coordinates": [ 78.4280038, 17.3269838 ] } },
{ "type": "Feature", "properties": { "Camp": "Panduranga Nagar Community Hall", "Ward": "Attapur", "City": "Hyderabad, Telangana, India", "Location": "Panduranga Nagar Community Hall, Attapur, Hyderabad, Telangana, India", "Latitude": 17.4606017, "Longitude": 78.4269424 }, "geometry": { "type": "Point", "coordinates": [ 78.4269424, 17.4606017 ] } },
{ "type": "Feature", "properties": { "Camp": "Mahila Building, Markendeya Nagar", "Ward": "Mailaradevipally", "City": "Hyderabad, Telangana, India", "Location": "Mahila Building, Markendeya Nagar, Mailaradevipally, Hyderabad, Telangana, India", "Latitude": 17.3806282, "Longitude": 78.4414448 }, "geometry": { "type": "Point", "coordinates": [ 78.4414448, 17.3806282 ] } },
{ "type": "Feature", "properties": { "Camp": "Alapati Nagar Community Hall", "Ward": "Mehdipatnam", "City": "Hyderabad, Telangana, India", "Location": "Alapati Nagar Community Hall, Mehdipatnam, Hyderabad, Telangana, India", "Latitude": 17.3872969, "Longitude": 78.4354989 }, "geometry": { "type": "Point", "coordinates": [ 78.4354989, 17.3872969 ] } },
{ "type": "Feature", "properties": { "Camp": "Telecom Colony Community Hall,\nTelecom Nagar", "Ward": "Guddimalkapur", "City": "Hyderabad, Telangana, India", "Location": "Telecom Colony Community Hall,\nTelecom Nagar, Guddimalkapur, Hyderabad, Telangana, India", "Latitude": 17.3872969, "Longitude": 78.4354989 }, "geometry": { "type": "Point", "coordinates": [ 78.4354989, 17.3872969 ] } },
{ "type": "Feature", "properties": { "Camp": "Ravinder Nagar Community Hall", "Ward": "Asifnagar", "City": "Hyderabad, Telangana, India", "Location": "Ravinder Nagar Community Hall, Asifnagar, Hyderabad, Telangana, India", "Latitude": 17.3894345, "Longitude": 78.4527576 }, "geometry": { "type": "Point", "coordinates": [ 78.4527576, 17.3894345 ] } },
{ "type": "Feature", "properties": { "Camp": "Zeba Bagh A Block Community Hall,\nZeba Bagh", "Ward": "Vijay Nagar", "City": "Hyderabad, Telangana, India", "Location": "Zeba Bagh A Block Community Hall,\nZeba Bagh, Vijay Nagar, Hyderabad, Telangana, India", "Latitude": 17.3893918, "Longitude": 78.4481956 }, "geometry": { "type": "Point", "coordinates": [ 78.4481956, 17.3893918 ] } },
{ "type": "Feature", "properties": { "Camp": "Govt. Girls High School, First Lancer", "Ward": "Ahmed Nagar", "City": "Hyderabad, Telangana, India", "Location": "Govt. Girls High School, First Lancer, Ahmed Nagar, Hyderabad, Telangana, India", "Latitude": 17.4025861, "Longitude": 78.4388687 }, "geometry": { "type": "Point", "coordinates": [ 78.4388687, 17.4025861 ] } },
{ "type": "Feature", "properties": { "Camp": "Laxmi Nagar Community Hall, Bazar\nGhat", "Ward": "Red Hills", "City": "Hyderabad, Telangana, India", "Location": "Laxmi Nagar Community Hall, Bazar\nGhat, Red Hills, Hyderabad, Telangana, India", "Latitude": 17.3959035, "Longitude": 78.4588398 }, "geometry": { "type": "Point", "coordinates": [ 78.4588398, 17.3959035 ] } },
{ "type": "Feature", "properties": { "Camp": "Owasi Community Hall, Habeeb\nNagar", "Ward": "Mallepally", "City": "Hyderabad, Telangana, India", "Location": "Owasi Community Hall, Habeeb\nNagar, Mallepally, Hyderabad, Telangana, India", "Latitude": 17.3927232, "Longitude": 78.4156385 }, "geometry": { "type": "Point", "coordinates": [ 78.4156385, 17.3927232 ] } },
{ "type": "Feature", "properties": { "Camp": "Kurma Basthi Community Hall,\nKurma Basthi", "Ward": "Ziaguda", "City": "Hyderabad, Telangana, India", "Location": "Kurma Basthi Community Hall,\nKurma Basthi, Ziaguda, Hyderabad, Telangana, India", "Latitude": 17.3672906, "Longitude": 78.4541453 }, "geometry": { "type": "Point", "coordinates": [ 78.4541453, 17.3672906 ] } },
{ "type": "Feature", "properties": { "Camp": "Gunge K Bowli Community Hall,\nTallagadda", "Ward": "Karwan", "City": "Hyderabad, Telangana, India", "Location": "Gunge K Bowli Community Hall,\nTallagadda, Karwan, Hyderabad, Telangana, India", "Latitude": 17.3919114, "Longitude": 78.4290079 }, "geometry": { "type": "Point", "coordinates": [ 78.4290079, 17.3919114 ] } },
{ "type": "Feature", "properties": { "Camp": "Munnuru Kapu Community Hall,\nGollabasthi", "Ward": "Lunger House", "City": "Hyderabad, Telangana, India", "Location": "Munnuru Kapu Community Hall,\nGollabasthi, Lunger House, Hyderabad, Telangana, India", "Latitude": 17.37926, "Longitude": 78.4186091 }, "geometry": { "type": "Point", "coordinates": [ 78.4186091, 17.37926 ] } },
{ "type": "Feature", "properties": { "Camp": "Owasi Ground", "Ward": "Golconda", "City": "Hyderabad, Telangana, India", "Location": "Owasi Ground, Golconda, Hyderabad, Telangana, India", "Latitude": 17.3885053, "Longitude": 78.4046304 }, "geometry": { "type": "Point", "coordinates": [ 78.4046304, 17.3885053 ] } },
{ "type": "Feature", "properties": { "Camp": "Akber pura Community Hall,", "Ward": "Tolichowki", "City": "Hyderabad, Telangana, India", "Location": "Akber pura Community Hall,, Tolichowki, Hyderabad, Telangana, India", "Latitude": 17.3990312, "Longitude": 78.4153224 }, "geometry": { "type": "Point", "coordinates": [ 78.4153224, 17.3990312 ] } },
{ "type": "Feature", "properties": { "Camp": "Kakathiya Nagar Old Age Home\nCommunity Hall,", "Ward": "Nanal Nagar", "City": "Hyderabad, Telangana, India", "Location": "Kakathiya Nagar Old Age Home\nCommunity Hall,, Nanal Nagar, Hyderabad, Telangana, India", "Latitude": 17.3945736, "Longitude": 78.4247435 }, "geometry": { "type": "Point", "coordinates": [ 78.4247435, 17.3945736 ] } },
{ "type": "Feature", "properties": { "Camp": "Valmiki Community Hall, Gowliguda\nChaman", "Ward": "Begum Bazar", "City": "Hyderabad, Telangana, India", "Location": "Valmiki Community Hall, Gowliguda\nChaman, Begum Bazar, Hyderabad, Telangana, India", "Latitude": 17.4112582, "Longitude": 78.4828364 }, "geometry": { "type": "Point", "coordinates": [ 78.4828364, 17.4112582 ] } },
{ "type": "Feature", "properties": { "Camp": "Maha Rana Pratap Community Hall\n(Aghapura)", "Ward": "Gosha Mahal", "City": "Hyderabad, Telangana, India", "Location": "Maha Rana Pratap Community Hall\n(Aghapura), Gosha Mahal, Hyderabad, Telangana, India", "Latitude": 17.391365, "Longitude": 78.51238 }, "geometry": { "type": "Point", "coordinates": [ 78.51238, 17.391365 ] } },
{ "type": "Feature", "properties": { "Camp": "Rahimpura Play Ground Wrestling\nHall Mangalhat", "Ward": "Mangalhat", "City": "Hyderabad, Telangana, India", "Location": "Rahimpura Play Ground Wrestling\nHall Mangalhat, Mangalhat, Hyderabad, Telangana, India", "Latitude": 17.381046, "Longitude": 78.4905896 }, "geometry": { "type": "Point", "coordinates": [ 78.4905896, 17.381046 ] } },
{ "type": "Feature", "properties": { "Camp": "Sarwar Nagar Community Hall", "Ward": "Dattatreya Nagar", "City": "Hyderabad, Telangana, India", "Location": "Sarwar Nagar Community Hall, Dattatreya Nagar, Hyderabad, Telangana, India", "Latitude": 17.3855505, "Longitude": 78.45029 }, "geometry": { "type": "Point", "coordinates": [ 78.45029, 17.3855505 ] } },
{ "type": "Feature", "properties": { "Camp": "Viveka Vardhini College", "Ward": "Jambagh(Nampally", "City": "Hyderabad, Telangana, India", "Location": "Viveka Vardhini College, Jambagh(Nampally, Hyderabad, Telangana, India", "Latitude": 17.3829095, "Longitude": 78.4806147 }, "geometry": { "type": "Point", "coordinates": [ 78.4806147, 17.3829095 ] } },
{ "type": "Feature", "properties": { "Camp": "Gowliguda Community Hall", "Ward": "Gunfoundary(Abid", "City": "Hyderabad, Telangana, India", "Location": "Gowliguda Community Hall, Gunfoundary(Abid, Hyderabad, Telangana, India", "Latitude": 17.3970617, "Longitude": 78.4777564 }, "geometry": { "type": "Point", "coordinates": [ 78.4777564, 17.3970617 ] } },
{ "type": "Feature", "properties": { "Camp": "Community Hall, Baggi Khana\nCommunity Hall", "Ward": "Himayathnagar", "City": "Hyderabad, Telangana, India", "Location": "Community Hall, Baggi Khana\nCommunity Hall, Himayathnagar, Hyderabad, Telangana, India", "Latitude": 17.4012433, "Longitude": 78.4838832 }, "geometry": { "type": "Point", "coordinates": [ 78.4838832, 17.4012433 ] } },
{ "type": "Feature", "properties": { "Camp": "Community Hall Veeranna Gutta", "Ward": "Kachiguda(Barkath", "City": "Hyderabad, Telangana, India", "Location": "Community Hall Veeranna Gutta, Kachiguda(Barkath, Hyderabad, Telangana, India", "Latitude": 17.3899084, "Longitude": 78.4977472 }, "geometry": { "type": "Point", "coordinates": [ 78.4977472, 17.3899084 ] } },
{ "type": "Feature", "properties": { "Camp": "Community Hall Satya Nagar", "Ward": "Nallakunta", "City": "Hyderabad, Telangana, India", "Location": "Community Hall Satya Nagar, Nallakunta, Hyderabad, Telangana, India", "Latitude": 17.3940891, "Longitude": 78.5007437 }, "geometry": { "type": "Point", "coordinates": [ 78.5007437, 17.3940891 ] } },
{ "type": "Feature", "properties": { "Camp": "Ward Office Harrajpenta", "Ward": "Golnaka", "City": "Hyderabad, Telangana, India", "Location": "Ward Office Harrajpenta, Golnaka, Hyderabad, Telangana, India", "Latitude": 17.3891422, "Longitude": 78.5081584 }, "geometry": { "type": "Point", "coordinates": [ 78.5081584, 17.3891422 ] } },
{ "type": "Feature", "properties": { "Camp": "Raghunath Nagar Community Hall", "Ward": "Amberpet", "City": "Hyderabad, Telangana, India", "Location": "Raghunath Nagar Community Hall, Amberpet, Hyderabad, Telangana, India", "Latitude": 17.396631, "Longitude": 78.5214624 }, "geometry": { "type": "Point", "coordinates": [ 78.5214624, 17.396631 ] } },
{ "type": "Feature", "properties": { "Camp": "Community Hall Ambedkar Nagar\nNear Pochamma Basti", "Ward": "Bagh Amberpet", "City": "Hyderabad, Telangana, India", "Location": "Community Hall Ambedkar Nagar\nNear Pochamma Basti, Bagh Amberpet, Hyderabad, Telangana, India", "Latitude": 17.3984974, "Longitude": 78.513728 }, "geometry": { "type": "Point", "coordinates": [ 78.513728, 17.3984974 ] } },
{ "type": "Feature", "properties": { "Camp": "Venkata Ramana Community Hall", "Ward": "Khairatabad", "City": "Hyderabad, Telangana, India", "Location": "Venkata Ramana Community Hall, Khairatabad, Hyderabad, Telangana, India", "Latitude": 17.414539, "Longitude": 78.4528342 }, "geometry": { "type": "Point", "coordinates": [ 78.4528342, 17.414539 ] } },
{ "type": "Feature", "properties": { "Camp": "Ms Maqtha Community Hall premices of Urdu medium High\nschool", "Ward": "Somajiguda", "City": "Hyderabad, Telangana, India", "Location": "Ms Maqtha Community Hall premices of Urdu medium High\nschool, Somajiguda, Hyderabad, Telangana, India", "Latitude": 17.4197628, "Longitude": 78.4634722 }, "geometry": { "type": "Point", "coordinates": [ 78.4634722, 17.4197628 ] } },
{ "type": "Feature", "properties": { "Camp": "Vivekananda Community Hall Bk\nRoad Ameerpet", "Ward": "Ameerpet", "City": "Hyderabad, Telangana, India", "Location": "Vivekananda Community Hall Bk\nRoad Ameerpet, Ameerpet, Hyderabad, Telangana, India", "Latitude": 17.4387765, "Longitude": 78.4492805 }, "geometry": { "type": "Point", "coordinates": [ 78.4492805, 17.4387765 ] } },
{ "type": "Feature", "properties": { "Camp": "Adithya Nagar  community hall,\nSanath Nagar", "Ward": "Sanathnagar", "City": "Hyderabad, Telangana, India", "Location": "Adithya Nagar  community hall,\nSanath Nagar, Sanathnagar, Hyderabad, Telangana, India", "Latitude": 17.4529177, "Longitude": 78.4414816 }, "geometry": { "type": "Point", "coordinates": [ 78.4414816, 17.4529177 ] } },
{ "type": "Feature", "properties": { "Camp": "Dalitha Jathiya Sangam Community\nHall Pratap Nagar", "Ward": "Venkateshwara", "City": "Hyderabad, Telangana, India", "Location": "Dalitha Jathiya Sangam Community\nHall Pratap Nagar, Venkateshwara, Hyderabad, Telangana, India", "Latitude": 17.4046713, "Longitude": 78.4646371 }, "geometry": { "type": "Point", "coordinates": [ 78.4646371, 17.4046713 ] } },
{ "type": "Feature", "properties": { "Camp": "Prem Nagar Community Hall", "Ward": "Banjara Hills", "City": "Hyderabad, Telangana, India", "Location": "Prem Nagar Community Hall, Banjara Hills, Hyderabad, Telangana, India", "Latitude": 17.4027883, "Longitude": 78.440015 }, "geometry": { "type": "Point", "coordinates": [ 78.440015, 17.4027883 ] } },
{ "type": "Feature", "properties": { "Camp": "BJR Nagar Community Hall", "Ward": "Shaikpet", "City": "Hyderabad, Telangana, India", "Location": "BJR Nagar Community Hall, Shaikpet, Hyderabad, Telangana, India", "Latitude": 17.4021851, "Longitude": 78.3994366 }, "geometry": { "type": "Point", "coordinates": [ 78.3994366, 17.4021851 ] } },
{ "type": "Feature", "properties": { "Camp": "GVK Tennis Court", "Ward": "Jubilee Hills", "City": "Hyderabad, Telangana, India", "Location": "GVK Tennis Court, Jubilee Hills, Hyderabad, Telangana, India", "Latitude": 17.4288884, "Longitude": 78.416072 }, "geometry": { "type": "Point", "coordinates": [ 78.416072, 17.4288884 ] } },
{ "type": "Feature", "properties": { "Camp": "Krishnanagar Community Hall", "Ward": "Yousufguda", "City": "Hyderabad, Telangana, India", "Location": "Krishnanagar Community Hall, Yousufguda, Hyderabad, Telangana, India", "Latitude": 17.433151, "Longitude": 78.4256253 }, "geometry": { "type": "Point", "coordinates": [ 78.4256253, 17.433151 ] } },
{ "type": "Feature", "properties": { "Camp": "Yadagiri nagar Community Hall", "Ward": "Vengal Rao Nagar", "City": "Hyderabad, Telangana, India", "Location": "Yadagiri nagar Community Hall, Vengal Rao Nagar, Hyderabad, Telangana, India", "Latitude": 17.4431039, "Longitude": 78.4328032 }, "geometry": { "type": "Point", "coordinates": [ 78.4328032, 17.4431039 ] } },
{ "type": "Feature", "properties": { "Camp": "Sultan Nagar Community Hall", "Ward": "Erragadda", "City": "Hyderabad, Telangana, India", "Location": "Sultan Nagar Community Hall, Erragadda, Hyderabad, Telangana, India", "Latitude": 17.45304, "Longitude": 78.428559 }, "geometry": { "type": "Point", "coordinates": [ 78.428559, 17.45304 ] } },
{ "type": "Feature", "properties": { "Camp": "HF Nagar Community Hall", "Ward": "Rahmath Nagar", "City": "Hyderabad, Telangana, India", "Location": "HF Nagar Community Hall, Rahmath Nagar, Hyderabad, Telangana, India", "Latitude": 17.4489783, "Longitude": 78.4179249 }, "geometry": { "type": "Point", "coordinates": [ 78.4179249, 17.4489783 ] } },
{ "type": "Feature", "properties": { "Camp": "Vinayaka Rao Nagar Community\nHall", "Ward": "Borabanda", "City": "Hyderabad, Telangana, India", "Location": "Vinayaka Rao Nagar Community\nHall, Borabanda, Hyderabad, Telangana, India", "Latitude": 17.4540938, "Longitude": 78.4155587 }, "geometry": { "type": "Point", "coordinates": [ 78.4155587, 17.4540938 ] } },
{ "type": "Feature", "properties": { "Camp": "Maseedbanda Community Hall", "Ward": "Kondapur", "City": "Hyderabad, Telangana, India", "Location": "Maseedbanda Community Hall, Kondapur, Hyderabad, Telangana, India", "Latitude": 17.4652772, "Longitude": 78.3419153 }, "geometry": { "type": "Point", "coordinates": [ 78.3419153, 17.4652772 ] } },
{ "type": "Feature", "properties": { "Camp": "Gopanpally Village Community Hall", "Ward": "Gachibowli", "City": "Hyderabad, Telangana, India", "Location": "Gopanpally Village Community Hall, Gachibowli, Hyderabad, Telangana, India", "Latitude": 17.4351452, "Longitude": 78.339901 }, "geometry": { "type": "Point", "coordinates": [ 78.339901, 17.4351452 ] } },
{ "type": "Feature", "properties": { "Camp": "Nethaji Community Hall MIG", "Ward": "Serilingampally", "City": "Hyderabad, Telangana, India", "Location": "Nethaji Community Hall MIG, Serilingampally, Hyderabad, Telangana, India", "Latitude": 17.4842226, "Longitude": 78.308687 }, "geometry": { "type": "Point", "coordinates": [ 78.308687, 17.4842226 ] } },
{ "type": "Feature", "properties": { "Camp": "Gokul Plots Community Hall", "Ward": "Madhapur", "City": "Hyderabad, Telangana, India", "Location": "Gokul Plots Community Hall, Madhapur, Hyderabad, Telangana, India", "Latitude": 17.4883532, "Longitude": 78.3817383 }, "geometry": { "type": "Point", "coordinates": [ 78.3817383, 17.4883532 ] } },
{ "type": "Feature", "properties": { "Camp": "Model Market, Mayuri Nagar", "Ward": "Miyapur", "City": "Hyderabad, Telangana, India", "Location": "Model Market, Mayuri Nagar, Miyapur, Hyderabad, Telangana, India", "Latitude": 17.508202, "Longitude": 78.368274 }, "geometry": { "type": "Point", "coordinates": [ 78.368274, 17.508202 ] } },
{ "type": "Feature", "properties": { "Camp": "Janapriya Association Hall, Miyapur", "Ward": "Hafeezpet", "City": "Hyderabad, Telangana, India", "Location": "Janapriya Association Hall, Miyapur, Hafeezpet, Hyderabad, Telangana, India", "Latitude": 17.4933665, "Longitude": 78.3568116 }, "geometry": { "type": "Point", "coordinates": [ 78.3568116, 17.4933665 ] } },
{ "type": "Feature", "properties": { "Camp": "Deepthisrinagar Community Hall", "Ward": "Chanda Nagar", "City": "Hyderabad, Telangana, India", "Location": "Deepthisrinagar Community Hall, Chanda Nagar, Hyderabad, Telangana, India", "Latitude": 17.497139, "Longitude": 78.318022 }, "geometry": { "type": "Point", "coordinates": [ 78.318022, 17.497139 ] } },
{ "type": "Feature", "properties": { "Camp": "Old MIG Community Hall", "Ward": "Bharathi Nagar (P)", "City": "Hyderabad, Telangana, India", "Location": "Old MIG Community Hall, Bharathi Nagar (P), Hyderabad, Telangana, India", "Latitude": 17.4825058, "Longitude": 78.3085104 }, "geometry": { "type": "Point", "coordinates": [ 78.3085104, 17.4825058 ] } },
{ "type": "Feature", "properties": { "Camp": "Kasi reddy Community Hall", "Ward": "Rc Puram", "City": "Hyderabad, Telangana, India", "Location": "Kasi reddy Community Hall, Rc Puram, Hyderabad, Telangana, India", "Latitude": 17.516068, "Longitude": 78.3013603 }, "geometry": { "type": "Point", "coordinates": [ 78.3013603, 17.516068 ] } },
{ "type": "Feature", "properties": { "Camp": "SriNagar Colony Community Hall", "Ward": "Patancheruvu", "City": "Hyderabad, Telangana, India", "Location": "SriNagar Colony Community Hall, Patancheruvu, Hyderabad, Telangana, India", "Latitude": 17.429919, "Longitude": 78.4286036 }, "geometry": { "type": "Point", "coordinates": [ 78.4286036, 17.429919 ] } },
{ "type": "Feature", "properties": { "Camp": "Mahila Mandali Building,4th\nPhase,KPHB,Kukatpally", "Ward": "KPHB Colony", "City": "Hyderabad, Telangana, India", "Location": "Mahila Mandali Building,4th\nPhase,KPHB,Kukatpally, KPHB Colony, Hyderabad, Telangana, India", "Latitude": 17.4721896, "Longitude": 78.3881555 }, "geometry": { "type": "Point", "coordinates": [ 78.3881555, 17.4721896 ] } },
{ "type": "Feature", "properties": { "Camp": "Pragathi Nagar Community\nHall,Moosapet,Hyd", "Ward": "Balaji Nagar", "City": "Hyderabad, Telangana, India", "Location": "Pragathi Nagar Community\nHall,Moosapet,Hyd, Balaji Nagar, Hyderabad, Telangana, India", "Latitude": 17.4703303, "Longitude": 78.4225935 }, "geometry": { "type": "Point", "coordinates": [ 78.4225935, 17.4703303 ] } },
{ "type": "Feature", "properties": { "Camp": "Rajiv Gandhi Nagar Community Hall,Rajiv Gandhi\nNagar,Allapur,Hyd", "Ward": "Allapur", "City": "Hyderabad, Telangana, India", "Location": "Rajiv Gandhi Nagar Community Hall,Rajiv Gandhi\nNagar,Allapur,Hyd, Allapur, Hyderabad, Telangana, India", "Latitude": 17.3916789, "Longitude": 78.5420343 }, "geometry": { "type": "Point", "coordinates": [ 78.5420343, 17.3916789 ] } },
{ "type": "Feature", "properties": { "Camp": "GHMC Ward Office,Moosapet,Hyd", "Ward": "Moosapet", "City": "Hyderabad, Telangana, India", "Location": "GHMC Ward Office,Moosapet,Hyd, Moosapet, Hyderabad, Telangana, India", "Latitude": 17.4683014, "Longitude": 78.4243125 }, "geometry": { "type": "Point", "coordinates": [ 78.4243125, 17.4683014 ] } },
{ "type": "Feature", "properties": { "Camp": "Bhagath Singh Park Community\nHall, Fathe Nagar,Hyd", "Ward": "Fateh Nagar", "City": "Hyderabad, Telangana, India", "Location": "Bhagath Singh Park Community\nHall, Fathe Nagar,Hyd, Fateh Nagar, Hyderabad, Telangana, India", "Latitude": 17.457702, "Longitude": 78.450971 }, "geometry": { "type": "Point", "coordinates": [ 78.450971, 17.457702 ] } },
{ "type": "Feature", "properties": { "Camp": "Harijanbasthi Hasmathpet", "Ward": "Old Bowenpally", "City": "Hyderabad, Telangana, India", "Location": "Harijanbasthi Hasmathpet, Old Bowenpally, Hyderabad, Telangana, India", "Latitude": 17.4733907, "Longitude": 78.4872136 }, "geometry": { "type": "Point", "coordinates": [ 78.4872136, 17.4733907 ] } },
{ "type": "Feature", "properties": { "Camp": "Balanagar Ward Office", "Ward": "Balanagar", "City": "Hyderabad, Telangana, India", "Location": "Balanagar Ward Office, Balanagar, Hyderabad, Telangana, India", "Latitude": 17.4821658, "Longitude": 78.4498333 }, "geometry": { "type": "Point", "coordinates": [ 78.4498333, 17.4821658 ] } },
{ "type": "Feature", "properties": { "Camp": "Model Market", "Ward": "Kukatpally", "City": "Hyderabad, Telangana, India", "Location": "Model Market, Kukatpally, Hyderabad, Telangana, India", "Latitude": 17.4953992, "Longitude": 78.3948175 }, "geometry": { "type": "Point", "coordinates": [ 78.3948175, 17.4953992 ] } },
{ "type": "Feature", "properties": { "Camp": "Baghameeri Ward Office", "Ward": "Vivekananda Nagar", "City": "Hyderabad, Telangana, India", "Location": "Baghameeri Ward Office, Vivekananda Nagar, Hyderabad, Telangana, India", "Latitude": 17.4929943, "Longitude": 78.40902 }, "geometry": { "type": "Point", "coordinates": [ 78.40902, 17.4929943 ] } },
{ "type": "Feature", "properties": { "Camp": "Hmt Satavahana Community Hall", "Ward": "Hyder Nagar", "City": "Hyderabad, Telangana, India", "Location": "Hmt Satavahana Community Hall, Hyder Nagar, Hyderabad, Telangana, India", "Latitude": 17.5026982, "Longitude": 78.3960295 }, "geometry": { "type": "Point", "coordinates": [ 78.3960295, 17.5026982 ] } },
{ "type": "Feature", "properties": { "Camp": "Jnnuram- Community Hall", "Ward": "Allwyn Colony", "City": "Hyderabad, Telangana, India", "Location": "Jnnuram- Community Hall, Allwyn Colony, Hyderabad, Telangana, India", "Latitude": 17.5036592, "Longitude": 78.4104779 }, "geometry": { "type": "Point", "coordinates": [ 78.4104779, 17.5036592 ] } },
{ "type": "Feature", "properties": { "Camp": "Ravi Narayana Reddy Nagar\nCommunity Hall", "Ward": "Gajularamaram", "City": "Hyderabad, Telangana, India", "Location": "Ravi Narayana Reddy Nagar\nCommunity Hall, Gajularamaram, Hyderabad, Telangana, India", "Latitude": 17.5232929, "Longitude": 78.4239439 }, "geometry": { "type": "Point", "coordinates": [ 78.4239439, 17.5232929 ] } },
{ "type": "Feature", "properties": { "Camp": "Sanjaypuri Community Hall", "Ward": "Jagadgirigutta", "City": "Hyderabad, Telangana, India", "Location": "Sanjaypuri Community Hall, Jagadgirigutta, Hyderabad, Telangana, India", "Latitude": 17.5060934, "Longitude": 78.4194929 }, "geometry": { "type": "Point", "coordinates": [ 78.4194929, 17.5060934 ] } },
{ "type": "Feature", "properties": { "Camp": "Srinivas Nagar Community Hall", "Ward": "Chintal", "City": "Hyderabad, Telangana, India", "Location": "Srinivas Nagar Community Hall, Chintal, Hyderabad, Telangana, India", "Latitude": 17.4979445, "Longitude": 78.4578511 }, "geometry": { "type": "Point", "coordinates": [ 78.4578511, 17.4979445 ] } },
{ "type": "Feature", "properties": { "Camp": "Nehru Nagar", "Ward": "Suraram", "City": "Hyderabad, Telangana, India", "Location": "Nehru Nagar, Suraram, Hyderabad, Telangana, India", "Latitude": 17.5190854, "Longitude": 78.4375362 }, "geometry": { "type": "Point", "coordinates": [ 78.4375362, 17.5190854 ] } },
{ "type": "Feature", "properties": { "Camp": "Kowkoor Model Market", "Ward": "Machabolaram", "City": "Hyderabad, Telangana, India", "Location": "Kowkoor Model Market, Machabolaram, Hyderabad, Telangana, India", "Latitude": 17.5364642, "Longitude": 78.536465 }, "geometry": { "type": "Point", "coordinates": [ 78.536465, 17.5364642 ] } },
{ "type": "Feature", "properties": { "Camp": "Golnaka Play Ground", "Ward": "Alwal", "City": "Hyderabad, Telangana, India", "Location": "Golnaka Play Ground, Alwal, Hyderabad, Telangana, India", "Latitude": 17.5004644, "Longitude": 78.5133048 }, "geometry": { "type": "Point", "coordinates": [ 78.5133048, 17.5004644 ] } },
{ "type": "Feature", "properties": { "Camp": "Mahila Bhavan-Indiranagar", "Ward": "Venkatapuram", "City": "Hyderabad, Telangana, India", "Location": "Mahila Bhavan-Indiranagar, Venkatapuram, Hyderabad, Telangana, India", "Latitude": 17.37072, "Longitude": 78.5338855 }, "geometry": { "type": "Point", "coordinates": [ 78.5338855, 17.37072 ] } },
{ "type": "Feature", "properties": { "Camp": "Mallanna Temple Community Hall", "Ward": "Neredmet", "City": "Hyderabad, Telangana, India", "Location": "Mallanna Temple Community Hall, Neredmet, Hyderabad, Telangana, India", "Latitude": 17.4692447, "Longitude": 78.5328653 }, "geometry": { "type": "Point", "coordinates": [ 78.5328653, 17.4692447 ] } },
{ "type": "Feature", "properties": { "Camp": "Ambedkar Nagar Community Hall", "Ward": "Vinayaka Ngr", "City": "Hyderabad, Telangana, India", "Location": "Ambedkar Nagar Community Hall, Vinayaka Ngr, Hyderabad, Telangana, India", "Latitude": 17.3528599, "Longitude": 78.5072936 }, "geometry": { "type": "Point", "coordinates": [ 78.5072936, 17.3528599 ] } },
{ "type": "Feature", "properties": { "Camp": "Pragathi Nagar, Sainathapuram\n(Officers Colony)", "Ward": "Moula Ali", "City": "Hyderabad, Telangana, India", "Location": "Pragathi Nagar, Sainathapuram\n(Officers Colony), Moula Ali, Hyderabad, Telangana, India", "Latitude": 17.4763526, "Longitude": 78.5531114 }, "geometry": { "type": "Point", "coordinates": [ 78.5531114, 17.4763526 ] } },
{ "type": "Feature", "properties": { "Camp": "Model Market, APIIC Colony", "Ward": "East Anandbagh", "City": "Hyderabad, Telangana, India", "Location": "Model Market, APIIC Colony, East Anandbagh, Hyderabad, Telangana, India", "Latitude": 17.4557922, "Longitude": 78.5443796 }, "geometry": { "type": "Point", "coordinates": [ 78.5443796, 17.4557922 ] } },
{ "type": "Feature", "properties": { "Camp": "Chanikyapuri Community Hall", "Ward": "Malkajigiri", "City": "Hyderabad, Telangana, India", "Location": "Chanikyapuri Community Hall, Malkajigiri, Hyderabad, Telangana, India", "Latitude": 17.3636632, "Longitude": 78.5647543 }, "geometry": { "type": "Point", "coordinates": [ 78.5647543, 17.3636632 ] } },
{ "type": "Feature", "properties": { "Camp": "Madhusudan Nagar Community Hall\nGround Floor & First Floor", "Ward": "Gowtham Nagar", "City": "Hyderabad, Telangana, India", "Location": "Madhusudan Nagar Community Hall\nGround Floor & First Floor, Gowtham Nagar, Hyderabad, Telangana, India", "Latitude": 17.448074, "Longitude": 78.531694 }, "geometry": { "type": "Point", "coordinates": [ 78.531694, 17.448074 ] } },
{ "type": "Feature", "properties": { "Camp": "Boyabasthi Community Hall,\nAddagutta", "Ward": "Addagutta", "City": "Hyderabad, Telangana, India", "Location": "Boyabasthi Community Hall,\nAddagutta, Addagutta, Hyderabad, Telangana, India", "Latitude": 17.5026982, "Longitude": 78.3960295 }, "geometry": { "type": "Point", "coordinates": [ 78.3960295, 17.5026982 ] } },
{ "type": "Feature", "properties": { "Camp": "Manikeshwar Nagar Community\nHall, Near Seven Hills", "Ward": "Taranaka", "City": "Hyderabad, Telangana, India", "Location": "Manikeshwar Nagar Community\nHall, Near Seven Hills, Taranaka, Hyderabad, Telangana, India", "Latitude": 17.4211616, "Longitude": 78.5230381 }, "geometry": { "type": "Point", "coordinates": [ 78.5230381, 17.4211616 ] } },
{ "type": "Feature", "properties": { "Camp": "Chintha Bai Community Hall", "Ward": "Mettiguda", "City": "Hyderabad, Telangana, India", "Location": "Chintha Bai Community Hall, Mettiguda, Hyderabad, Telangana, India", "Latitude": 17.4336168, "Longitude": 78.5233908 }, "geometry": { "type": "Point", "coordinates": [ 78.5233908, 17.4336168 ] } },
{ "type": "Feature", "properties": { "Camp": "Red Cross Society UPHC,\nMohammedguda", "Ward": "Seethaphalmandi", "City": "Hyderabad, Telangana, India", "Location": "Red Cross Society UPHC,\nMohammedguda, Seethaphalmandi, Hyderabad, Telangana, India", "Latitude": 17.4377986, "Longitude": 78.4867895 }, "geometry": { "type": "Point", "coordinates": [ 78.4867895, 17.4377986 ] } },
{ "type": "Feature", "properties": { "Camp": "Ashok Nagar  Community Hall,\nBeside Hanuman Temple", "Ward": "Boudha Nagr", "City": "Hyderabad, Telangana, India", "Location": "Ashok Nagar  Community Hall,\nBeside Hanuman Temple, Boudha Nagr, Hyderabad, Telangana, India", "Latitude": 17.416032, "Longitude": 78.5174782 }, "geometry": { "type": "Point", "coordinates": [ 78.5174782, 17.416032 ] } },
{ "type": "Feature", "properties": { "Camp": "Golla Komaraiah Community Hall", "Ward": "Bansilapet", "City": "Hyderabad, Telangana, India", "Location": "Golla Komaraiah Community Hall, Bansilapet, Hyderabad, Telangana, India", "Latitude": 17.3601849, "Longitude": 78.5273308 }, "geometry": { "type": "Point", "coordinates": [ 78.5273308, 17.3601849 ] } },
{ "type": "Feature", "properties": { "Camp": "Dr. Pauldas UPHC, Nallagutta", "Ward": "Ramgopalpet", "City": "Hyderabad, Telangana, India", "Location": "Dr. Pauldas UPHC, Nallagutta, Ramgopalpet, Hyderabad, Telangana, India", "Latitude": 17.4375299, "Longitude": 78.4872706 }, "geometry": { "type": "Point", "coordinates": [ 78.4872706, 17.4375299 ] } },
{ "type": "Feature", "properties": { "Camp": "Tatachary Colony Community Hall", "Ward": "Begumpet", "City": "Hyderabad, Telangana, India", "Location": "Tatachary Colony Community Hall, Begumpet, Hyderabad, Telangana, India", "Latitude": 17.440398, "Longitude": 78.4564138 }, "geometry": { "type": "Point", "coordinates": [ 78.4564138, 17.440398 ] } },
{ "type": "Feature", "properties": { "Camp": "Shivaji Nagar Community Hall\n(Dokkalamma Temple)", "Ward": "Mondamarket", "City": "Hyderabad, Telangana, India", "Location": "Shivaji Nagar Community Hall\n(Dokkalamma Temple), Mondamarket, Hyderabad, Telangana, India", "Latitude": 17.4373881, "Longitude": 78.4955831 }, "geometry": { "type": "Point", "coordinates": [ 78.4955831, 17.4373881 ] } }
]
}
