{
"type": "FeatureCollection",
"crs": { "type": "name", "properties": { "name": "urn:ogc:def:crs:OGC:1.3:CRS84" } },
"features": [
{ "type": "Feature", "properties": { "stop_name": "30c bus stop", "stop_id": "src5_863", "stop_lat": 17.4963, "stop_lon": 78.42857, "source": "src5" }, "geometry": { "type": "Point", "coordinates": [ 78.42857, 17.4963 ] } },
{ "type": "Feature", "properties": { "stop_name": "35 bus stop ground", "stop_id": "src5_3864", "stop_lat": 17.47532, "stop_lon": 78.55641, "source": "src5" }, "geometry": { "type": "Point", "coordinates": [ 78.55641, 17.47532 ] } },
{ "type": "Feature", "properties": { "stop_name": "6 number", "stop_id": "src5_3374", "stop_lat": 17.39164, "stop_lon": 78.51092, "source": "src5" }, "geometry": { "type": "Point", "coordinates": [ 78.51092, 17.39164 ] } },
{ "type": "Feature", "properties": { "stop_name": "7 temples", "stop_id": "src5_1227", "stop_lat": 17.51731, "stop_lon": 78.51293, "source": "src5" }, "geometry": { "type": "Point", "coordinates": [ 78.51293, 17.51731 ] } },
{ "type": "Feature", "properties": { "stop_name": "8v x road bus stop", "stop_id": "src5_1378", "stop_lat": 17.32553, "stop_lon": 78.57151, "source": "src5" }, "geometry": { "type": "Point", "coordinates": [ 78.57151, 17.32553 ] } },
{ "type": "Feature", "properties": { "stop_name": "9th phase rtc bustop", "stop_id": "src5_2103", "stop_lat": 17.48543, "stop_lon": 78.38575, "source": "src5" }, "geometry": { "type": "Point", "coordinates": [ 78.38575, 17.48543 ] } },
{ "type": "Feature", "properties": { "stop_name": "a s rao nagar", "stop_id": "src5_3916", "stop_lat": 17.47696, "stop_lon": 78.5638, "source": "src5" }, "geometry": { "type": "Point", "coordinates": [ 78.5638, 17.47696 ] } },
{ "type": "Feature", "properties": { "stop_name": "a s rao nagar(pickup van)", "stop_id": "src5_3904", "stop_lat": 17.47375, "stop_lon": 78.56963, "source": "src5" }, "geometry": { "type": "Point", "coordinates": [ 78.56963, 17.47375 ] } },
{ "type": "Feature", "properties": { "stop_name": "a-type bus stop", "stop_id": "src5_1822", "stop_lat": 17.45299, "stop_lon": 78.59078, "source": "src5" }, "geometry": { "type": "Point", "coordinates": [ 78.59078, 17.45299 ] } },
{ "type": "Feature", "properties": { "stop_name": "a. p. s. r. t. c kushaiguda depot", "stop_id": "src5_3892", "stop_lat": 17.46854, "stop_lon": 78.5652, "source": "src5" }, "geometry": { "type": "Point", "coordinates": [ 78.5652, 17.46854 ] } },
{ "type": "Feature", "properties": { "stop_name": "a.c. guards", "stop_id": "src5_2763", "stop_lat": 17.40289, "stop_lon": 78.45958, "source": "src5" }, "geometry": { "type": "Point", "coordinates": [ 78.45958, 17.40289 ] } },
{ "type": "Feature", "properties": { "stop_name": "a.c. guards", "stop_id": "src5_2764", "stop_lat": 17.40313, "stop_lon": 78.45978, "source": "src5" }, "geometry": { "type": "Point", "coordinates": [ 78.45978, 17.40313 ] } },
{ "type": "Feature", "properties": { "stop_name": "a.c.b. office", "stop_id": "src5_2303", "stop_lat": 17.41279, "stop_lon": 78.42912, "source": "src5" }, "geometry": { "type": "Point", "coordinates": [ 78.42912, 17.41279 ] } },
{ "type": "Feature", "properties": { "stop_name": "a.c.b. office", "stop_id": "src5_2304", "stop_lat": 17.41271, "stop_lon": 78.42948, "source": "src5" }, "geometry": { "type": "Point", "coordinates": [ 78.42948, 17.41271 ] } },
{ "type": "Feature", "properties": { "stop_name": "a.g. colony", "stop_id": "src5_816", "stop_lat": 17.44817, "stop_lon": 78.43033, "source": "src5" }, "geometry": { "type": "Point", "coordinates": [ 78.43033, 17.44817 ] } },
{ "type": "Feature", "properties": { "stop_name": "a.g. colony", "stop_id": "src5_817", "stop_lat": 17.44834, "stop_lon": 78.43029, "source": "src5" }, "geometry": { "type": "Point", "coordinates": [ 78.43029, 17.44834 ] } },
{ "type": "Feature", "properties": { "stop_name": "a.o.c.", "stop_id": "src5_3467", "stop_lat": 17.47436, "stop_lon": 78.51717, "source": "src5" }, "geometry": { "type": "Point", "coordinates": [ 78.51717, 17.47436 ] } },
{ "type": "Feature", "properties": { "stop_name": "a.o.c.", "stop_id": "src5_3468", "stop_lat": 17.47431, "stop_lon": 78.51755, "source": "src5" }, "geometry": { "type": "Point", "coordinates": [ 78.51755, 17.47431 ] } },
{ "type": "Feature", "properties": { "stop_name": "a.o.c. center a", "stop_id": "src5_3461", "stop_lat": 17.45331, "stop_lon": 78.51185, "source": "src5" }, "geometry": { "type": "Point", "coordinates": [ 78.51185, 17.45331 ] } },
{ "type": "Feature", "properties": { "stop_name": "a.o.c. chowk", "stop_id": "src5_3459", "stop_lat": 17.45907, "stop_lon": 78.51533, "source": "src5" }, "geometry": { "type": "Point", "coordinates": [ 78.51533, 17.45907 ] } },
{ "type": "Feature", "properties": { "stop_name": "a.o.c. chowk", "stop_id": "src5_3460", "stop_lat": 17.45906, "stop_lon": 78.51564, "source": "src5" }, "geometry": { "type": "Point", "coordinates": [ 78.51564, 17.45906 ] } },
{ "type": "Feature", "properties": { "stop_name": "a.o.c. gouha road", "stop_id": "src5_3457", "stop_lat": 17.45792, "stop_lon": 78.51442, "source": "src5" }, "geometry": { "type": "Point", "coordinates": [ 78.51442, 17.45792 ] } },
{ "type": "Feature", "properties": { "stop_name": "a.o.c. gouha road", "stop_id": "src5_3458", "stop_lat": 17.45878, "stop_lon": 78.51502, "source": "src5" }, "geometry": { "type": "Point", "coordinates": [ 78.51502, 17.45878 ] } },
{ "type": "Feature", "properties": { "stop_name": "a.p.s.r.t.c", "stop_id": "src5_472", "stop_lat": 17.45425, "stop_lon": 78.41586, "source": "src5" }, "geometry": { "type": "Point", "coordinates": [ 78.41586, 17.45425 ] } },
{ "type": "Feature", "properties": { "stop_name": "a.p.s.r.t.c bus stop", "stop_id": "src5_1355", "stop_lat": 17.32864, "stop_lon": 78.5753, "source": "src5" }, "geometry": { "type": "Point", "coordinates": [ 78.5753, 17.32864 ] } },
{ "type": "Feature", "properties": { "stop_name": "a.p.s.r.t.c bus stop - pedda amberpet", "stop_id": "src5_1679", "stop_lat": 17.32168, "stop_lon": 78.63864, "source": "src5" }, "geometry": { "type": "Point", "coordinates": [ 78.63864, 17.32168 ] } },
{ "type": "Feature", "properties": { "stop_name": "a.p.s.r.t.c shamshabad bus station", "stop_id": "src5_363", "stop_lat": 17.26245, "stop_lon": 78.38777, "source": "src5" }, "geometry": { "type": "Point", "coordinates": [ 78.38777, 17.26245 ] } },
{ "type": "Feature", "properties": { "stop_name": "a.s. rao nagar", "stop_id": "src5_1579", "stop_lat": 17.47998, "stop_lon": 78.55678, "source": "src5" }, "geometry": { "type": "Point", "coordinates": [ 78.55678, 17.47998 ] } },
{ "type": "Feature", "properties": { "stop_name": "aaramghar bus stop", "stop_id": "src5_676", "stop_lat": 17.32106, "stop_lon": 78.43151, "source": "src5" }, "geometry": { "type": "Point", "coordinates": [ 78.43151, 17.32106 ] } },
{ "type": "Feature", "properties": { "stop_name": "abdullapur", "stop_id": "src5_1916", "stop_lat": 17.32023, "stop_lon": 78.69244, "source": "src5" }, "geometry": { "type": "Point", "coordinates": [ 78.69244, 17.32023 ] } },
{ "type": "Feature", "properties": { "stop_name": "abdullapur met bus stop", "stop_id": "src5_1919", "stop_lat": 17.31014, "stop_lon": 78.68635, "source": "src5" }, "geometry": { "type": "Point", "coordinates": [ 78.68635, 17.31014 ] } },
{ "type": "Feature", "properties": { "stop_name": "abdullapur sc colony bus stop", "stop_id": "src5_1917", "stop_lat": 17.32231, "stop_lon": 78.69404, "source": "src5" }, "geometry": { "type": "Point", "coordinates": [ 78.69404, 17.32231 ] } },
{ "type": "Feature", "properties": { "stop_name": "abdullapur village", "stop_id": "src5_1915", "stop_lat": 17.32036, "stop_lon": 78.6924, "source": "src5" }, "geometry": { "type": "Point", "coordinates": [ 78.6924, 17.32036 ] } },
{ "type": "Feature", "properties": { "stop_name": "abdullapurmet", "stop_id": "src5_1918", "stop_lat": 17.31025, "stop_lon": 78.68635, "source": "src5" }, "geometry": { "type": "Point", "coordinates": [ 78.68635, 17.31025 ] } },
{ "type": "Feature", "properties": { "stop_name": "abdullapurmet", "stop_id": "src5_1921", "stop_lat": 17.30997, "stop_lon": 78.68668, "source": "src5" }, "geometry": { "type": "Point", "coordinates": [ 78.68668, 17.30997 ] } },
{ "type": "Feature", "properties": { "stop_name": "abdullapurmet", "stop_id": "src5_1923", "stop_lat": 17.30986, "stop_lon": 78.68637, "source": "src5" }, "geometry": { "type": "Point", "coordinates": [ 78.68637, 17.30986 ] } },
{ "type": "Feature", "properties": { "stop_name": "abdullapurmet bus stop", "stop_id": "src5_1924", "stop_lat": 17.3095, "stop_lon": 78.68693, "source": "src5" }, "geometry": { "type": "Point", "coordinates": [ 78.68693, 17.3095 ] } },
{ "type": "Feature", "properties": { "stop_name": "abids", "stop_id": "src5_2916", "stop_lat": 17.39194, "stop_lon": 78.47664, "source": "src5" }, "geometry": { "type": "Point", "coordinates": [ 78.47664, 17.39194 ] } },
{ "type": "Feature", "properties": { "stop_name": "abids", "stop_id": "src5_2917", "stop_lat": 17.39207, "stop_lon": 78.47695, "source": "src5" }, "geometry": { "type": "Point", "coordinates": [ 78.47695, 17.39207 ] } },
{ "type": "Feature", "properties": { "stop_name": "abids (g.p.o.)", "stop_id": "src5_2900", "stop_lat": 17.38741, "stop_lon": 78.47636, "source": "src5" }, "geometry": { "type": "Point", "coordinates": [ 78.47636, 17.38741 ] } },
{ "type": "Feature", "properties": { "stop_name": "abids (g.p.o.)", "stop_id": "src5_2901", "stop_lat": 17.38768, "stop_lon": 78.47613, "source": "src5" }, "geometry": { "type": "Point", "coordinates": [ 78.47613, 17.38768 ] } },
{ "type": "Feature", "properties": { "stop_name": "abids grammar school", "stop_id": "src5_2922", "stop_lat": 17.39286, "stop_lon": 78.47636, "source": "src5" }, "geometry": { "type": "Point", "coordinates": [ 78.47636, 17.39286 ] } },
{ "type": "Feature", "properties": { "stop_name": "achchayyapalli bus stop", "stop_id": "src5_1619", "stop_lat": 17.70865, "stop_lon": 78.57491, "source": "src5" }, "geometry": { "type": "Point", "coordinates": [ 78.57491, 17.70865 ] } },
{ "type": "Feature", "properties": { "stop_name": "adarsh nagar bus stop", "stop_id": "src5_1462", "stop_lat": 17.40164, "stop_lon": 78.56228, "source": "src5" }, "geometry": { "type": "Point", "coordinates": [ 78.56228, 17.40164 ] } },
{ "type": "Feature", "properties": { "stop_name": "adarsh nagar bus stop", "stop_id": "src5_276", "stop_lat": 17.48299, "stop_lon": 78.32035, "source": "src5" }, "geometry": { "type": "Point", "coordinates": [ 78.32035, 17.48299 ] } },
{ "type": "Feature", "properties": { "stop_name": "adarsh nagar bus stop", "stop_id": "src5_3886", "stop_lat": 17.4108, "stop_lon": 78.56431, "source": "src5" }, "geometry": { "type": "Point", "coordinates": [ 78.56431, 17.4108 ] } },
{ "type": "Feature", "properties": { "stop_name": "addagutta \/ east maredpally", "stop_id": "src5_3447", "stop_lat": 17.44556, "stop_lon": 78.51472, "source": "src5" }, "geometry": { "type": "Point", "coordinates": [ 78.51472, 17.44556 ] } },
{ "type": "Feature", "properties": { "stop_name": "addagutta \/ east maredpally", "stop_id": "src5_3448", "stop_lat": 17.44563, "stop_lon": 78.51452, "source": "src5" }, "geometry": { "type": "Point", "coordinates": [ 78.51452, 17.44563 ] } },
{ "type": "Feature", "properties": { "stop_name": "addagutta bus stop", "stop_id": "src5_2122", "stop_lat": 17.49755, "stop_lon": 78.39494, "source": "src5" }, "geometry": { "type": "Point", "coordinates": [ 78.39494, 17.49755 ] } },
{ "type": "Feature", "properties": { "stop_name": "adibatla x road", "stop_id": "src5_1331", "stop_lat": 17.23796, "stop_lon": 78.5409, "source": "src5" }, "geometry": { "type": "Point", "coordinates": [ 78.5409, 17.23796 ] } },
{ "type": "Feature", "properties": { "stop_name": "adibatla x road", "stop_id": "src5_1332", "stop_lat": 17.23807, "stop_lon": 78.541, "source": "src5" }, "geometry": { "type": "Point", "coordinates": [ 78.541, 17.23807 ] } },
{ "type": "Feature", "properties": { "stop_name": "adikmet", "stop_id": "src5_3401", "stop_lat": 17.40667, "stop_lon": 78.51273, "source": "src5" }, "geometry": { "type": "Point", "coordinates": [ 78.51273, 17.40667 ] } },
{ "type": "Feature", "properties": { "stop_name": "adikmet", "stop_id": "src5_3403", "stop_lat": 17.40652, "stop_lon": 78.51253, "source": "src5" }, "geometry": { "type": "Point", "coordinates": [ 78.51253, 17.40652 ] } },
{ "type": "Feature", "properties": { "stop_name": "adithya nagar", "stop_id": "src5_1325", "stop_lat": 17.2328, "stop_lon": 78.54263, "source": "src5" }, "geometry": { "type": "Point", "coordinates": [ 78.54263, 17.2328 ] } },
{ "type": "Feature", "properties": { "stop_name": "adithya nagar", "stop_id": "src5_1326", "stop_lat": 17.23283, "stop_lon": 78.54247, "source": "src5" }, "geometry": { "type": "Point", "coordinates": [ 78.54247, 17.23283 ] } },
{ "type": "Feature", "properties": { "stop_name": "afzal gunj", "stop_id": "src5_2705", "stop_lat": 17.37431, "stop_lon": 78.46891, "source": "src5" }, "geometry": { "type": "Point", "coordinates": [ 78.46891, 17.37431 ] } },
{ "type": "Feature", "properties": { "stop_name": "afzalgunj", "stop_id": "src5_2700", "stop_lat": 17.36798, "stop_lon": 78.46879, "source": "src5" }, "geometry": { "type": "Point", "coordinates": [ 78.46879, 17.36798 ] } },
{ "type": "Feature", "properties": { "stop_name": "afzalgunj", "stop_id": "src5_2870", "stop_lat": 17.3736, "stop_lon": 78.47585, "source": "src5" }, "geometry": { "type": "Point", "coordinates": [ 78.47585, 17.3736 ] } },
{ "type": "Feature", "properties": { "stop_name": "afzalgunj", "stop_id": "src5_2871", "stop_lat": 17.3739, "stop_lon": 78.47719, "source": "src5" }, "geometry": { "type": "Point", "coordinates": [ 78.47719, 17.3739 ] } },
{ "type": "Feature", "properties": { "stop_name": "afzalgunj", "stop_id": "src5_2877", "stop_lat": 17.37622, "stop_lon": 78.47533, "source": "src5" }, "geometry": { "type": "Point", "coordinates": [ 78.47533, 17.37622 ] } },
{ "type": "Feature", "properties": { "stop_name": "afzalgunj \/ afzalgunj central library", "stop_id": "src5_2869", "stop_lat": 17.37363, "stop_lon": 78.4777, "source": "src5" }, "geometry": { "type": "Point", "coordinates": [ 78.4777, 17.37363 ] } },
{ "type": "Feature", "properties": { "stop_name": "afzalgunj \/ afzalgunj central library", "stop_id": "src5_2872", "stop_lat": 17.37379, "stop_lon": 78.47808, "source": "src5" }, "geometry": { "type": "Point", "coordinates": [ 78.47808, 17.37379 ] } },
{ "type": "Feature", "properties": { "stop_name": "afzalgunj terminal", "stop_id": "src5_2866", "stop_lat": 17.37301, "stop_lon": 78.47659, "source": "src5" }, "geometry": { "type": "Point", "coordinates": [ 78.47659, 17.37301 ] } },
{ "type": "Feature", "properties": { "stop_name": "ag campus", "stop_id": "src5_700", "stop_lat": 17.31456, "stop_lon": 78.42471, "source": "src5" }, "geometry": { "type": "Point", "coordinates": [ 78.42471, 17.31456 ] } },
{ "type": "Feature", "properties": { "stop_name": "ag campus", "stop_id": "src5_702", "stop_lat": 17.3138, "stop_lon": 78.42477, "source": "src5" }, "geometry": { "type": "Point", "coordinates": [ 78.42477, 17.3138 ] } },
{ "type": "Feature", "properties": { "stop_name": "ag colony bus stop", "stop_id": "src5_831", "stop_lat": 17.44955, "stop_lon": 78.43053, "source": "src5" }, "geometry": { "type": "Point", "coordinates": [ 78.43053, 17.44955 ] } },
{ "type": "Feature", "properties": { "stop_name": "ag office \/ birla mandir", "stop_id": "src5_2778", "stop_lat": 17.40595, "stop_lon": 78.46717, "source": "src5" }, "geometry": { "type": "Point", "coordinates": [ 78.46717, 17.40595 ] } },
{ "type": "Feature", "properties": { "stop_name": "ag office \/ birla mandir", "stop_id": "src5_2779", "stop_lat": 17.40616, "stop_lon": 78.46743, "source": "src5" }, "geometry": { "type": "Point", "coordinates": [ 78.46743, 17.40616 ] } },
{ "type": "Feature", "properties": { "stop_name": "aghapalli", "stop_id": "src5_1635", "stop_lat": 17.1346, "stop_lon": 78.6715, "source": "src5" }, "geometry": { "type": "Point", "coordinates": [ 78.6715, 17.1346 ] } },
{ "type": "Feature", "properties": { "stop_name": "aghapura", "stop_id": "src5_2711", "stop_lat": 17.383, "stop_lon": 78.46556, "source": "src5" }, "geometry": { "type": "Point", "coordinates": [ 78.46556, 17.383 ] } },
{ "type": "Feature", "properties": { "stop_name": "aghapura", "stop_id": "src5_2714", "stop_lat": 17.38301, "stop_lon": 78.46592, "source": "src5" }, "geometry": { "type": "Point", "coordinates": [ 78.46592, 17.38301 ] } },
{ "type": "Feature", "properties": { "stop_name": "aghapura bus stop", "stop_id": "src5_2712", "stop_lat": 17.38234, "stop_lon": 78.46372, "source": "src5" }, "geometry": { "type": "Point", "coordinates": [ 78.46372, 17.38234 ] } },
{ "type": "Feature", "properties": { "stop_name": "aghapura bus stop", "stop_id": "src5_2713", "stop_lat": 17.38231, "stop_lon": 78.46372, "source": "src5" }, "geometry": { "type": "Point", "coordinates": [ 78.46372, 17.38231 ] } },
{ "type": "Feature", "properties": { "stop_name": "aghapura bus stop", "stop_id": "src5_2717", "stop_lat": 17.38248, "stop_lon": 78.46102, "source": "src5" }, "geometry": { "type": "Point", "coordinates": [ 78.46102, 17.38248 ] } },
{ "type": "Feature", "properties": { "stop_name": "agriculture research institute", "stop_id": "src5_385", "stop_lat": 17.32137, "stop_lon": 78.39953, "source": "src5" }, "geometry": { "type": "Point", "coordinates": [ 78.39953, 17.32137 ] } },
{ "type": "Feature", "properties": { "stop_name": "agriculture research institute", "stop_id": "src5_387", "stop_lat": 17.32122, "stop_lon": 78.39962, "source": "src5" }, "geometry": { "type": "Point", "coordinates": [ 78.39962, 17.32122 ] } },
{ "type": "Feature", "properties": { "stop_name": "ahmedha guda", "stop_id": "src5_1829", "stop_lat": 17.4985, "stop_lon": 78.61168, "source": "src5" }, "geometry": { "type": "Point", "coordinates": [ 78.61168, 17.4985 ] } },
{ "type": "Feature", "properties": { "stop_name": "ahmedha guda", "stop_id": "src5_1830", "stop_lat": 17.49833, "stop_lon": 78.61118, "source": "src5" }, "geometry": { "type": "Point", "coordinates": [ 78.61118, 17.49833 ] } },
{ "type": "Feature", "properties": { "stop_name": "ahmedia bus stop", "stop_id": "src5_2408", "stop_lat": 17.40366, "stop_lon": 78.44096, "source": "src5" }, "geometry": { "type": "Point", "coordinates": [ 78.44096, 17.40366 ] } },
{ "type": "Feature", "properties": { "stop_name": "airforce bus stop", "stop_id": "src5_1253", "stop_lat": 17.53803, "stop_lon": 78.519, "source": "src5" }, "geometry": { "type": "Point", "coordinates": [ 78.519, 17.53803 ] } },
{ "type": "Feature", "properties": { "stop_name": "airport backside", "stop_id": "src5_3177", "stop_lat": 17.45185, "stop_lon": 78.48597, "source": "src5" }, "geometry": { "type": "Point", "coordinates": [ 78.48597, 17.45185 ] } },
{ "type": "Feature", "properties": { "stop_name": "akbar bagh", "stop_id": "src5_3221", "stop_lat": 17.36715, "stop_lon": 78.5052, "source": "src5" }, "geometry": { "type": "Point", "coordinates": [ 78.5052, 17.36715 ] } },
{ "type": "Feature", "properties": { "stop_name": "akbar bagh", "stop_id": "src5_3222", "stop_lat": 17.36735, "stop_lon": 78.50512, "source": "src5" }, "geometry": { "type": "Point", "coordinates": [ 78.50512, 17.36735 ] } },
{ "type": "Feature", "properties": { "stop_name": "alagadda baavi north bus stop", "stop_id": "src5_3432", "stop_lat": 17.43548, "stop_lon": 78.51419, "source": "src5" }, "geometry": { "type": "Point", "coordinates": [ 78.51419, 17.43548 ] } },
{ "type": "Feature", "properties": { "stop_name": "alakapuri colony uppal", "stop_id": "src5_1465", "stop_lat": 17.36503, "stop_lon": 78.55665, "source": "src5" }, "geometry": { "type": "Point", "coordinates": [ 78.55665, 17.36503 ] } },
{ "type": "Feature", "properties": { "stop_name": "aliabad", "stop_id": "src5_1615", "stop_lat": 17.6252, "stop_lon": 78.59154, "source": "src5" }, "geometry": { "type": "Point", "coordinates": [ 78.59154, 17.6252 ] } },
{ "type": "Feature", "properties": { "stop_name": "aliabad", "stop_id": "src5_1616", "stop_lat": 17.62565, "stop_lon": 78.5923, "source": "src5" }, "geometry": { "type": "Point", "coordinates": [ 78.5923, 17.62565 ] } },
{ "type": "Feature", "properties": { "stop_name": "aliabad x road", "stop_id": "src5_1613", "stop_lat": 17.61918, "stop_lon": 78.57161, "source": "src5" }, "geometry": { "type": "Point", "coordinates": [ 78.57161, 17.61918 ] } },
{ "type": "Feature", "properties": { "stop_name": "aliabad x road", "stop_id": "src5_1614", "stop_lat": 17.61897, "stop_lon": 78.57146, "source": "src5" }, "geometry": { "type": "Point", "coordinates": [ 78.57146, 17.61897 ] } },
{ "type": "Feature", "properties": { "stop_name": "alind \/ doyens colony", "stop_id": "src5_261", "stop_lat": 17.47667, "stop_lon": 78.32456, "source": "src5" }, "geometry": { "type": "Point", "coordinates": [ 78.32456, 17.47667 ] } },
{ "type": "Feature", "properties": { "stop_name": "alind \/ doyens colony", "stop_id": "src5_262", "stop_lat": 17.4767, "stop_lon": 78.32476, "source": "src5" }, "geometry": { "type": "Point", "coordinates": [ 78.32476, 17.4767 ] } },
{ "type": "Feature", "properties": { "stop_name": "aliyabad", "stop_id": "src5_2675", "stop_lat": 17.34438, "stop_lon": 78.46999, "source": "src5" }, "geometry": { "type": "Point", "coordinates": [ 78.46999, 17.34438 ] } },
{ "type": "Feature", "properties": { "stop_name": "aliyabad \/ shamsheergunj", "stop_id": "src5_2671", "stop_lat": 17.34339, "stop_lon": 78.46964, "source": "src5" }, "geometry": { "type": "Point", "coordinates": [ 78.46964, 17.34339 ] } },
{ "type": "Feature", "properties": { "stop_name": "alkapuri", "stop_id": "src5_3835", "stop_lat": 17.36403, "stop_lon": 78.55737, "source": "src5" }, "geometry": { "type": "Point", "coordinates": [ 78.55737, 17.36403 ] } },
{ "type": "Feature", "properties": { "stop_name": "alkapuri \/ alkapuri colony uppal", "stop_id": "src5_1454", "stop_lat": 17.36599, "stop_lon": 78.55694, "source": "src5" }, "geometry": { "type": "Point", "coordinates": [ 78.55694, 17.36599 ] } },
{ "type": "Feature", "properties": { "stop_name": "allwyn 1st phase jalakanya hotel", "stop_id": "src5_2266", "stop_lat": 17.5044, "stop_lon": 78.4157, "source": "src5" }, "geometry": { "type": "Point", "coordinates": [ 78.4157, 17.5044 ] } },
{ "type": "Feature", "properties": { "stop_name": "allwyn 1st phase jalakanya hotel", "stop_id": "src5_2267", "stop_lat": 17.50421, "stop_lon": 78.41585, "source": "src5" }, "geometry": { "type": "Point", "coordinates": [ 78.41585, 17.50421 ] } },
{ "type": "Feature", "properties": { "stop_name": "allwyn colony", "stop_id": "src5_2268", "stop_lat": 17.50526, "stop_lon": 78.41143, "source": "src5" }, "geometry": { "type": "Point", "coordinates": [ 78.41143, 17.50526 ] } },
{ "type": "Feature", "properties": { "stop_name": "allwyn colony", "stop_id": "src5_2269", "stop_lat": 17.50537, "stop_lon": 78.41131, "source": "src5" }, "geometry": { "type": "Point", "coordinates": [ 78.41131, 17.50537 ] } },
{ "type": "Feature", "properties": { "stop_name": "allwyn colony", "stop_id": "src5_2450", "stop_lat": 17.45672, "stop_lon": 78.43978, "source": "src5" }, "geometry": { "type": "Point", "coordinates": [ 78.43978, 17.45672 ] } },
{ "type": "Feature", "properties": { "stop_name": "allwyn colony", "stop_id": "src5_2451", "stop_lat": 17.45688, "stop_lon": 78.43984, "source": "src5" }, "geometry": { "type": "Point", "coordinates": [ 78.43984, 17.45688 ] } },
{ "type": "Feature", "properties": { "stop_name": "allwyn colony x road", "stop_id": "src5_1992", "stop_lat": 17.49335, "stop_lon": 78.35182, "source": "src5" }, "geometry": { "type": "Point", "coordinates": [ 78.35182, 17.49335 ] } },
{ "type": "Feature", "properties": { "stop_name": "allwyn colony x road bus stop", "stop_id": "src5_1993", "stop_lat": 17.49246, "stop_lon": 78.35275, "source": "src5" }, "geometry": { "type": "Point", "coordinates": [ 78.35275, 17.49246 ] } },
{ "type": "Feature", "properties": { "stop_name": "allwyn colony x road bus stop", "stop_id": "src5_1999", "stop_lat": 17.4945, "stop_lon": 78.35219, "source": "src5" }, "geometry": { "type": "Point", "coordinates": [ 78.35219, 17.4945 ] } },
{ "type": "Feature", "properties": { "stop_name": "allwyn erragadda", "stop_id": "src5_2358", "stop_lat": 17.45371, "stop_lon": 78.43484, "source": "src5" }, "geometry": { "type": "Point", "coordinates": [ 78.43484, 17.45371 ] } },
{ "type": "Feature", "properties": { "stop_name": "allwyn phase 1", "stop_id": "src5_2270", "stop_lat": 17.50219, "stop_lon": 78.41873, "source": "src5" }, "geometry": { "type": "Point", "coordinates": [ 78.41873, 17.50219 ] } },
{ "type": "Feature", "properties": { "stop_name": "allwyn phase 1", "stop_id": "src5_2271", "stop_lat": 17.50188, "stop_lon": 78.41885, "source": "src5" }, "geometry": { "type": "Point", "coordinates": [ 78.41885, 17.50188 ] } },
{ "type": "Feature", "properties": { "stop_name": "allwyn phase 1", "stop_id": "src5_2272", "stop_lat": 17.50211, "stop_lon": 78.41916, "source": "src5" }, "geometry": { "type": "Point", "coordinates": [ 78.41916, 17.50211 ] } },
{ "type": "Feature", "properties": { "stop_name": "allwyn x road", "stop_id": "src5_1990", "stop_lat": 17.49336, "stop_lon": 78.35148, "source": "src5" }, "geometry": { "type": "Point", "coordinates": [ 78.35148, 17.49336 ] } },
{ "type": "Feature", "properties": { "stop_name": "allwyn x road", "stop_id": "src5_1995", "stop_lat": 17.49381, "stop_lon": 78.34986, "source": "src5" }, "geometry": { "type": "Point", "coordinates": [ 78.34986, 17.49381 ] } },
{ "type": "Feature", "properties": { "stop_name": "allwyn x road", "stop_id": "src5_1997", "stop_lat": 17.49192, "stop_lon": 78.35314, "source": "src5" }, "geometry": { "type": "Point", "coordinates": [ 78.35314, 17.49192 ] } },
{ "type": "Feature", "properties": { "stop_name": "allwyn x road", "stop_id": "src5_2000", "stop_lat": 17.49452, "stop_lon": 78.35218, "source": "src5" }, "geometry": { "type": "Point", "coordinates": [ 78.35218, 17.49452 ] } },
{ "type": "Feature", "properties": { "stop_name": "almasguda", "stop_id": "src5_3505", "stop_lat": 17.30929, "stop_lon": 78.533, "source": "src5" }, "geometry": { "type": "Point", "coordinates": [ 78.533, 17.30929 ] } },
{ "type": "Feature", "properties": { "stop_name": "almasguda", "stop_id": "src5_3506", "stop_lat": 17.30934, "stop_lon": 78.53322, "source": "src5" }, "geometry": { "type": "Point", "coordinates": [ 78.53322, 17.30934 ] } },
{ "type": "Feature", "properties": { "stop_name": "almasguda cyr colony bus stop", "stop_id": "src5_3668", "stop_lat": 17.3074, "stop_lon": 78.53533, "source": "src5" }, "geometry": { "type": "Point", "coordinates": [ 78.53533, 17.3074 ] } },
{ "type": "Feature", "properties": { "stop_name": "alugadda bhavi", "stop_id": "src5_3429", "stop_lat": 17.43526, "stop_lon": 78.51457, "source": "src5" }, "geometry": { "type": "Point", "coordinates": [ 78.51457, 17.43526 ] } },
{ "type": "Feature", "properties": { "stop_name": "alugadda bhavi", "stop_id": "src5_3433", "stop_lat": 17.43551, "stop_lon": 78.51411, "source": "src5" }, "geometry": { "type": "Point", "coordinates": [ 78.51411, 17.43551 ] } },
{ "type": "Feature", "properties": { "stop_name": "alwal", "stop_id": "src5_1208", "stop_lat": 17.5021, "stop_lon": 78.51398, "source": "src5" }, "geometry": { "type": "Point", "coordinates": [ 78.51398, 17.5021 ] } },
{ "type": "Feature", "properties": { "stop_name": "alwal", "stop_id": "src5_1210", "stop_lat": 17.50156, "stop_lon": 78.51408, "source": "src5" }, "geometry": { "type": "Point", "coordinates": [ 78.51408, 17.50156 ] } },
{ "type": "Feature", "properties": { "stop_name": "alwal hills bus stop", "stop_id": "src5_1191", "stop_lat": 17.51295, "stop_lon": 78.49471, "source": "src5" }, "geometry": { "type": "Point", "coordinates": [ 78.49471, 17.51295 ] } },
{ "type": "Feature", "properties": { "stop_name": "alwal police station bus stop", "stop_id": "src5_1196", "stop_lat": 17.50313, "stop_lon": 78.51105, "source": "src5" }, "geometry": { "type": "Point", "coordinates": [ 78.51105, 17.50313 ] } },
{ "type": "Feature", "properties": { "stop_name": "alwal police station bus stop", "stop_id": "src5_1197", "stop_lat": 17.50325, "stop_lon": 78.51107, "source": "src5" }, "geometry": { "type": "Point", "coordinates": [ 78.51107, 17.50325 ] } },
{ "type": "Feature", "properties": { "stop_name": "alwyin colony x road bus stop", "stop_id": "src5_1996", "stop_lat": 17.49383, "stop_lon": 78.34985, "source": "src5" }, "geometry": { "type": "Point", "coordinates": [ 78.34985, 17.49383 ] } },
{ "type": "Feature", "properties": { "stop_name": "amba theatre", "stop_id": "src5_767", "stop_lat": 17.39381, "stop_lon": 78.44251, "source": "src5" }, "geometry": { "type": "Point", "coordinates": [ 78.44251, 17.39381 ] } },
{ "type": "Feature", "properties": { "stop_name": "amba theatre", "stop_id": "src5_769", "stop_lat": 17.39418, "stop_lon": 78.44215, "source": "src5" }, "geometry": { "type": "Point", "coordinates": [ 78.44215, 17.39418 ] } },
{ "type": "Feature", "properties": { "stop_name": "ambedhkar bus stop", "stop_id": "src5_1748", "stop_lat": 17.41763, "stop_lon": 78.62643, "source": "src5" }, "geometry": { "type": "Point", "coordinates": [ 78.62643, 17.41763 ] } },
{ "type": "Feature", "properties": { "stop_name": "ambedkar college bus stop", "stop_id": "src5_3236", "stop_lat": 17.40134, "stop_lon": 78.49948, "source": "src5" }, "geometry": { "type": "Point", "coordinates": [ 78.49948, 17.40134 ] } },
{ "type": "Feature", "properties": { "stop_name": "ambedkar colony bus stop", "stop_id": "src5_251", "stop_lat": 17.47647, "stop_lon": 78.2964, "source": "src5" }, "geometry": { "type": "Point", "coordinates": [ 78.2964, 17.47647 ] } },
{ "type": "Feature", "properties": { "stop_name": "ambedkar nagar", "stop_id": "src5_1548", "stop_lat": 17.5069, "stop_lon": 78.58358, "source": "src5" }, "geometry": { "type": "Point", "coordinates": [ 78.58358, 17.5069 ] } },
{ "type": "Feature", "properties": { "stop_name": "ambedkar nagar", "stop_id": "src5_1549", "stop_lat": 17.50693, "stop_lon": 78.5837, "source": "src5" }, "geometry": { "type": "Point", "coordinates": [ 78.5837, 17.50693 ] } },
{ "type": "Feature", "properties": { "stop_name": "ambedkar nagar colony bus stop", "stop_id": "src5_2148", "stop_lat": 17.41793, "stop_lon": 78.40028, "source": "src5" }, "geometry": { "type": "Point", "coordinates": [ 78.40028, 17.41793 ] } },
{ "type": "Feature", "properties": { "stop_name": "ambedkar nagar rtc bus stop", "stop_id": "src5_1787", "stop_lat": 17.42976, "stop_lon": 78.61718, "source": "src5" }, "geometry": { "type": "Point", "coordinates": [ 78.61718, 17.42976 ] } },
{ "type": "Feature", "properties": { "stop_name": "ambedkar statue", "stop_id": "src5_1180", "stop_lat": 17.5064, "stop_lon": 78.50469, "source": "src5" }, "geometry": { "type": "Point", "coordinates": [ 78.50469, 17.5064 ] } },
{ "type": "Feature", "properties": { "stop_name": "ambedkar statue", "stop_id": "src5_1646", "stop_lat": 17.19363, "stop_lon": 78.64553, "source": "src5" }, "geometry": { "type": "Point", "coordinates": [ 78.64553, 17.19363 ] } },
{ "type": "Feature", "properties": { "stop_name": "ambedkar statue", "stop_id": "src5_1647", "stop_lat": 17.19369, "stop_lon": 78.64562, "source": "src5" }, "geometry": { "type": "Point", "coordinates": [ 78.64562, 17.19369 ] } },
{ "type": "Feature", "properties": { "stop_name": "ambedkar university", "stop_id": "src5_2069", "stop_lat": 17.4337, "stop_lon": 78.39765, "source": "src5" }, "geometry": { "type": "Point", "coordinates": [ 78.39765, 17.4337 ] } },
{ "type": "Feature", "properties": { "stop_name": "ambedkar university", "stop_id": "src5_2070", "stop_lat": 17.43348, "stop_lon": 78.39776, "source": "src5" }, "geometry": { "type": "Point", "coordinates": [ 78.39776, 17.43348 ] } },
{ "type": "Feature", "properties": { "stop_name": "amberpet", "stop_id": "src5_1623", "stop_lat": 17.77707, "stop_lon": 78.57013, "source": "src5" }, "geometry": { "type": "Point", "coordinates": [ 78.57013, 17.77707 ] } },
{ "type": "Feature", "properties": { "stop_name": "amberpet", "stop_id": "src5_3376", "stop_lat": 17.39218, "stop_lon": 78.5173, "source": "src5" }, "geometry": { "type": "Point", "coordinates": [ 78.5173, 17.39218 ] } },
{ "type": "Feature", "properties": { "stop_name": "amberpet 6 number", "stop_id": "src5_3371", "stop_lat": 17.39142, "stop_lon": 78.5126, "source": "src5" }, "geometry": { "type": "Point", "coordinates": [ 78.5126, 17.39142 ] } },
{ "type": "Feature", "properties": { "stop_name": "amberpet 6 number", "stop_id": "src5_3372", "stop_lat": 17.39157, "stop_lon": 78.51238, "source": "src5" }, "geometry": { "type": "Point", "coordinates": [ 78.51238, 17.39157 ] } },
{ "type": "Feature", "properties": { "stop_name": "amberpet ali cafe", "stop_id": "src5_3365", "stop_lat": 17.38252, "stop_lon": 78.51803, "source": "src5" }, "geometry": { "type": "Point", "coordinates": [ 78.51803, 17.38252 ] } },
{ "type": "Feature", "properties": { "stop_name": "amberpet ali cafe", "stop_id": "src5_3366", "stop_lat": 17.38241, "stop_lon": 78.51823, "source": "src5" }, "geometry": { "type": "Point", "coordinates": [ 78.51823, 17.38241 ] } },
{ "type": "Feature", "properties": { "stop_name": "amberpet bus stop", "stop_id": "src5_3367", "stop_lat": 17.38959, "stop_lon": 78.51426, "source": "src5" }, "geometry": { "type": "Point", "coordinates": [ 78.51426, 17.38959 ] } },
{ "type": "Feature", "properties": { "stop_name": "amberpet bus stop", "stop_id": "src5_3368", "stop_lat": 17.39014, "stop_lon": 78.51651, "source": "src5" }, "geometry": { "type": "Point", "coordinates": [ 78.51651, 17.39014 ] } },
{ "type": "Feature", "properties": { "stop_name": "amberpet bus stop", "stop_id": "src5_3370", "stop_lat": 17.39134, "stop_lon": 78.51623, "source": "src5" }, "geometry": { "type": "Point", "coordinates": [ 78.51623, 17.39134 ] } },
{ "type": "Feature", "properties": { "stop_name": "amberpet gandhi statue", "stop_id": "src5_3384", "stop_lat": 17.39266, "stop_lon": 78.51976, "source": "src5" }, "geometry": { "type": "Point", "coordinates": [ 78.51976, 17.39266 ] } },
{ "type": "Feature", "properties": { "stop_name": "amberpet gandhi statue", "stop_id": "src5_3385", "stop_lat": 17.39241, "stop_lon": 78.51962, "source": "src5" }, "geometry": { "type": "Point", "coordinates": [ 78.51962, 17.39241 ] } },
{ "type": "Feature", "properties": { "stop_name": "amberpet police line", "stop_id": "src5_3363", "stop_lat": 17.3865, "stop_lon": 78.51652, "source": "src5" }, "geometry": { "type": "Point", "coordinates": [ 78.51652, 17.3865 ] } },
{ "type": "Feature", "properties": { "stop_name": "amberpet police line", "stop_id": "src5_3364", "stop_lat": 17.38644, "stop_lon": 78.51671, "source": "src5" }, "geometry": { "type": "Point", "coordinates": [ 78.51671, 17.38644 ] } },
{ "type": "Feature", "properties": { "stop_name": "amberpet police lines bus stop", "stop_id": "src5_3362", "stop_lat": 17.38618, "stop_lon": 78.51573, "source": "src5" }, "geometry": { "type": "Point", "coordinates": [ 78.51573, 17.38618 ] } },
{ "type": "Feature", "properties": { "stop_name": "amberpet police station", "stop_id": "src5_3369", "stop_lat": 17.39024, "stop_lon": 78.51649, "source": "src5" }, "geometry": { "type": "Point", "coordinates": [ 78.51649, 17.39024 ] } },
{ "type": "Feature", "properties": { "stop_name": "amberpet village", "stop_id": "src5_1677", "stop_lat": 17.32033, "stop_lon": 78.63756, "source": "src5" }, "geometry": { "type": "Point", "coordinates": [ 78.63756, 17.32033 ] } },
{ "type": "Feature", "properties": { "stop_name": "amberpet village", "stop_id": "src5_1678", "stop_lat": 17.32037, "stop_lon": 78.63766, "source": "src5" }, "geometry": { "type": "Point", "coordinates": [ 78.63766, 17.32037 ] } },
{ "type": "Feature", "properties": { "stop_name": "ameenpur bus stop", "stop_id": "src5_348", "stop_lat": 17.52397, "stop_lon": 78.32422, "source": "src5" }, "geometry": { "type": "Point", "coordinates": [ 78.32422, 17.52397 ] } },
{ "type": "Feature", "properties": { "stop_name": "ameenpur bus stop", "stop_id": "src5_349", "stop_lat": 17.5237, "stop_lon": 78.32408, "source": "src5" }, "geometry": { "type": "Point", "coordinates": [ 78.32408, 17.5237 ] } },
{ "type": "Feature", "properties": { "stop_name": "ameerpet", "stop_id": "src5_2442", "stop_lat": 17.43404, "stop_lon": 78.4463, "source": "src5" }, "geometry": { "type": "Point", "coordinates": [ 78.4463, 17.43404 ] } },
{ "type": "Feature", "properties": { "stop_name": "ameerpet", "stop_id": "src5_2443", "stop_lat": 17.43322, "stop_lon": 78.44656, "source": "src5" }, "geometry": { "type": "Point", "coordinates": [ 78.44656, 17.43322 ] } },
{ "type": "Feature", "properties": { "stop_name": "ameerpet", "stop_id": "src5_2447", "stop_lat": 17.43161, "stop_lon": 78.44758, "source": "src5" }, "geometry": { "type": "Point", "coordinates": [ 78.44758, 17.43161 ] } },
{ "type": "Feature", "properties": { "stop_name": "ameerpet", "stop_id": "src5_2448", "stop_lat": 17.43178, "stop_lon": 78.44796, "source": "src5" }, "geometry": { "type": "Point", "coordinates": [ 78.44796, 17.43178 ] } },
{ "type": "Feature", "properties": { "stop_name": "ameerpet", "stop_id": "src5_2583", "stop_lat": 17.42966, "stop_lon": 78.45044, "source": "src5" }, "geometry": { "type": "Point", "coordinates": [ 78.45044, 17.42966 ] } },
{ "type": "Feature", "properties": { "stop_name": "ameerpet", "stop_id": "src5_2600", "stop_lat": 17.43745, "stop_lon": 78.44825, "source": "src5" }, "geometry": { "type": "Point", "coordinates": [ 78.44825, 17.43745 ] } },
{ "type": "Feature", "properties": { "stop_name": "ameerpet (pickup van)", "stop_id": "src5_2439", "stop_lat": 17.43608, "stop_lon": 78.44412, "source": "src5" }, "geometry": { "type": "Point", "coordinates": [ 78.44412, 17.43608 ] } },
{ "type": "Feature", "properties": { "stop_name": "ameerpet \/ sheesh mahal", "stop_id": "src5_2588", "stop_lat": 17.43461, "stop_lon": 78.44889, "source": "src5" }, "geometry": { "type": "Point", "coordinates": [ 78.44889, 17.43461 ] } },
{ "type": "Feature", "properties": { "stop_name": "ameerpet \/ sheesh mahal", "stop_id": "src5_2589", "stop_lat": 17.43441, "stop_lon": 78.44867, "source": "src5" }, "geometry": { "type": "Point", "coordinates": [ 78.44867, 17.43441 ] } },
{ "type": "Feature", "properties": { "stop_name": "ameerpet bus stop", "stop_id": "src5_2449", "stop_lat": 17.43458, "stop_lon": 78.44794, "source": "src5" }, "geometry": { "type": "Point", "coordinates": [ 78.44794, 17.43458 ] } },
{ "type": "Feature", "properties": { "stop_name": "ameerpet near gurudwara", "stop_id": "src5_2598", "stop_lat": 17.43605, "stop_lon": 78.44828, "source": "src5" }, "geometry": { "type": "Point", "coordinates": [ 78.44828, 17.43605 ] } },
{ "type": "Feature", "properties": { "stop_name": "ameerpet satyam theatre", "stop_id": "src5_2599", "stop_lat": 17.43698, "stop_lon": 78.44822, "source": "src5" }, "geometry": { "type": "Point", "coordinates": [ 78.44822, 17.43698 ] } },
{ "type": "Feature", "properties": { "stop_name": "ammuguda bazar", "stop_id": "src5_3657", "stop_lat": 17.49703, "stop_lon": 78.53202, "source": "src5" }, "geometry": { "type": "Point", "coordinates": [ 78.53202, 17.49703 ] } },
{ "type": "Feature", "properties": { "stop_name": "ammuguda bazar", "stop_id": "src5_3658", "stop_lat": 17.49672, "stop_lon": 78.53246, "source": "src5" }, "geometry": { "type": "Point", "coordinates": [ 78.53246, 17.49672 ] } },
{ "type": "Feature", "properties": { "stop_name": "ammuguda bazar", "stop_id": "src5_3662", "stop_lat": 17.49687, "stop_lon": 78.53246, "source": "src5" }, "geometry": { "type": "Point", "coordinates": [ 78.53246, 17.49687 ] } },
{ "type": "Feature", "properties": { "stop_name": "anajpur", "stop_id": "src5_1899", "stop_lat": 17.27019, "stop_lon": 78.6934, "source": "src5" }, "geometry": { "type": "Point", "coordinates": [ 78.6934, 17.27019 ] } },
{ "type": "Feature", "properties": { "stop_name": "anajpur", "stop_id": "src5_1900", "stop_lat": 17.27025, "stop_lon": 78.69337, "source": "src5" }, "geometry": { "type": "Point", "coordinates": [ 78.69337, 17.27025 ] } },
{ "type": "Feature", "properties": { "stop_name": "anand bagh", "stop_id": "src5_3760", "stop_lat": 17.45806, "stop_lon": 78.53672, "source": "src5" }, "geometry": { "type": "Point", "coordinates": [ 78.53672, 17.45806 ] } },
{ "type": "Feature", "properties": { "stop_name": "anand bagh", "stop_id": "src5_3761", "stop_lat": 17.45813, "stop_lon": 78.53657, "source": "src5" }, "geometry": { "type": "Point", "coordinates": [ 78.53657, 17.45813 ] } },
{ "type": "Feature", "properties": { "stop_name": "anand nagar", "stop_id": "src5_1448", "stop_lat": 17.36967, "stop_lon": 78.5736, "source": "src5" }, "geometry": { "type": "Point", "coordinates": [ 78.5736, 17.36967 ] } },
{ "type": "Feature", "properties": { "stop_name": "anand nagar", "stop_id": "src5_1449", "stop_lat": 17.36957, "stop_lon": 78.57367, "source": "src5" }, "geometry": { "type": "Point", "coordinates": [ 78.57367, 17.36957 ] } },
{ "type": "Feature", "properties": { "stop_name": "anand theatre", "stop_id": "src5_2981", "stop_lat": 17.44323, "stop_lon": 78.48211, "source": "src5" }, "geometry": { "type": "Point", "coordinates": [ 78.48211, 17.44323 ] } },
{ "type": "Feature", "properties": { "stop_name": "anand theatre", "stop_id": "src5_2983", "stop_lat": 17.44357, "stop_lon": 78.48271, "source": "src5" }, "geometry": { "type": "Point", "coordinates": [ 78.48271, 17.44357 ] } },
{ "type": "Feature", "properties": { "stop_name": "ananda jyothy bus stop", "stop_id": "src5_3571", "stop_lat": 17.38998, "stop_lon": 78.53152, "source": "src5" }, "geometry": { "type": "Point", "coordinates": [ 78.53152, 17.38998 ] } },
{ "type": "Feature", "properties": { "stop_name": "ananpurna", "stop_id": "src5_2316", "stop_lat": 17.42356, "stop_lon": 78.4253, "source": "src5" }, "geometry": { "type": "Point", "coordinates": [ 78.4253, 17.42356 ] } },
{ "type": "Feature", "properties": { "stop_name": "ananpurna", "stop_id": "src5_2319", "stop_lat": 17.42356, "stop_lon": 78.4247, "source": "src5" }, "geometry": { "type": "Point", "coordinates": [ 78.4247, 17.42356 ] } },
{ "type": "Feature", "properties": { "stop_name": "anantaram", "stop_id": "src5_53", "stop_lat": 17.49832, "stop_lon": 78.8424, "source": "src5" }, "geometry": { "type": "Point", "coordinates": [ 78.8424, 17.49832 ] } },
{ "type": "Feature", "properties": { "stop_name": "andhra bank bus stop", "stop_id": "src5_2780", "stop_lat": 17.40615, "stop_lon": 78.46743, "source": "src5" }, "geometry": { "type": "Point", "coordinates": [ 78.46743, 17.40615 ] } },
{ "type": "Feature", "properties": { "stop_name": "andhra kasari colony \/ huda park rtc", "stop_id": "src5_1396", "stop_lat": 17.32751, "stop_lon": 78.57482, "source": "src5" }, "geometry": { "type": "Point", "coordinates": [ 78.57482, 17.32751 ] } },
{ "type": "Feature", "properties": { "stop_name": "andhra kasari colony \/ huda park rtc", "stop_id": "src5_1398", "stop_lat": 17.32753, "stop_lon": 78.57501, "source": "src5" }, "geometry": { "type": "Point", "coordinates": [ 78.57501, 17.32753 ] } },
{ "type": "Feature", "properties": { "stop_name": "andhra pradesh state road transport corporation- ecil bus stop", "stop_id": "src5_3911", "stop_lat": 17.4735, "stop_lon": 78.57089, "source": "src5" }, "geometry": { "type": "Point", "coordinates": [ 78.57089, 17.4735 ] } },
{ "type": "Feature", "properties": { "stop_name": "andhrajyothi", "stop_id": "src5_2431", "stop_lat": 17.42717, "stop_lon": 78.44474, "source": "src5" }, "geometry": { "type": "Point", "coordinates": [ 78.44474, 17.42717 ] } },
{ "type": "Feature", "properties": { "stop_name": "andhrajyothi", "stop_id": "src5_2444", "stop_lat": 17.4273, "stop_lon": 78.44502, "source": "src5" }, "geometry": { "type": "Point", "coordinates": [ 78.44502, 17.4273 ] } },
{ "type": "Feature", "properties": { "stop_name": "angadipeta", "stop_id": "src5_3032", "stop_lat": 17.51337, "stop_lon": 78.47956, "source": "src5" }, "geometry": { "type": "Point", "coordinates": [ 78.47956, 17.51337 ] } },
{ "type": "Feature", "properties": { "stop_name": "angadipeta", "stop_id": "src5_3033", "stop_lat": 17.5135, "stop_lon": 78.47978, "source": "src5" }, "geometry": { "type": "Point", "coordinates": [ 78.47978, 17.5135 ] } },
{ "type": "Feature", "properties": { "stop_name": "angrau rtc bus stop", "stop_id": "src5_713", "stop_lat": 17.32272, "stop_lon": 78.41837, "source": "src5" }, "geometry": { "type": "Point", "coordinates": [ 78.41837, 17.32272 ] } },
{ "type": "Feature", "properties": { "stop_name": "anjaiah nagar", "stop_id": "src5_521", "stop_lat": 17.45203, "stop_lon": 78.36381, "source": "src5" }, "geometry": { "type": "Point", "coordinates": [ 78.36381, 17.45203 ] } },
{ "type": "Feature", "properties": { "stop_name": "anjaiah nagar", "stop_id": "src5_524", "stop_lat": 17.45209, "stop_lon": 78.36355, "source": "src5" }, "geometry": { "type": "Point", "coordinates": [ 78.36355, 17.45209 ] } },
{ "type": "Feature", "properties": { "stop_name": "anjaiah nagar", "stop_id": "src5_864", "stop_lat": 17.50172, "stop_lon": 78.42486, "source": "src5" }, "geometry": { "type": "Point", "coordinates": [ 78.42486, 17.50172 ] } },
{ "type": "Feature", "properties": { "stop_name": "anjaiah nagar", "stop_id": "src5_867", "stop_lat": 17.5019, "stop_lon": 78.4246, "source": "src5" }, "geometry": { "type": "Point", "coordinates": [ 78.4246, 17.5019 ] } },
{ "type": "Feature", "properties": { "stop_name": "anjali gardens bus stop", "stop_id": "src5_446", "stop_lat": 17.40314, "stop_lon": 78.37109, "source": "src5" }, "geometry": { "type": "Point", "coordinates": [ 78.37109, 17.40314 ] } },
{ "type": "Feature", "properties": { "stop_name": "anjaneya tower", "stop_id": "src5_3499", "stop_lat": 17.29771, "stop_lon": 78.53225, "source": "src5" }, "geometry": { "type": "Point", "coordinates": [ 78.53225, 17.29771 ] } },
{ "type": "Feature", "properties": { "stop_name": "annamacharya engineering college", "stop_id": "src5_10", "stop_lat": 17.30326, "stop_lon": 78.73643, "source": "src5" }, "geometry": { "type": "Point", "coordinates": [ 78.73643, 17.30326 ] } },
{ "type": "Feature", "properties": { "stop_name": "annamacharya engineering college", "stop_id": "src5_11", "stop_lat": 17.30319, "stop_lon": 78.73618, "source": "src5" }, "geometry": { "type": "Point", "coordinates": [ 78.73618, 17.30319 ] } },
{ "type": "Feature", "properties": { "stop_name": "annapurna colony", "stop_id": "src5_2264", "stop_lat": 17.50035, "stop_lon": 78.41611, "source": "src5" }, "geometry": { "type": "Point", "coordinates": [ 78.41611, 17.50035 ] } },
{ "type": "Feature", "properties": { "stop_name": "annapurna colony", "stop_id": "src5_2265", "stop_lat": 17.50046, "stop_lon": 78.41611, "source": "src5" }, "geometry": { "type": "Point", "coordinates": [ 78.41611, 17.50046 ] } },
{ "type": "Feature", "properties": { "stop_name": "annapurna colony auto stop", "stop_id": "src5_3326", "stop_lat": 17.31057, "stop_lon": 78.52328, "source": "src5" }, "geometry": { "type": "Point", "coordinates": [ 78.52328, 17.31057 ] } },
{ "type": "Feature", "properties": { "stop_name": "annapurna colony bus stop", "stop_id": "src5_1838", "stop_lat": 17.48212, "stop_lon": 78.6166, "source": "src5" }, "geometry": { "type": "Point", "coordinates": [ 78.6166, 17.48212 ] } },
{ "type": "Feature", "properties": { "stop_name": "annapurna colony bus stop", "stop_id": "src5_3843", "stop_lat": 17.41051, "stop_lon": 78.56008, "source": "src5" }, "geometry": { "type": "Point", "coordinates": [ 78.56008, 17.41051 ] } },
{ "type": "Feature", "properties": { "stop_name": "annapurna hotel", "stop_id": "src5_2908", "stop_lat": 17.38912, "stop_lon": 78.4731, "source": "src5" }, "geometry": { "type": "Point", "coordinates": [ 78.4731, 17.38912 ] } },
{ "type": "Feature", "properties": { "stop_name": "annapurna nagar", "stop_id": "src5_3328", "stop_lat": 17.3102, "stop_lon": 78.52327, "source": "src5" }, "geometry": { "type": "Point", "coordinates": [ 78.52327, 17.3102 ] } },
{ "type": "Feature", "properties": { "stop_name": "annapurna nagar", "stop_id": "src5_3329", "stop_lat": 17.31024, "stop_lon": 78.52333, "source": "src5" }, "geometry": { "type": "Point", "coordinates": [ 78.52333, 17.31024 ] } },
{ "type": "Feature", "properties": { "stop_name": "annojiguda", "stop_id": "src5_1815", "stop_lat": 17.43582, "stop_lon": 78.66092, "source": "src5" }, "geometry": { "type": "Point", "coordinates": [ 78.66092, 17.43582 ] } },
{ "type": "Feature", "properties": { "stop_name": "annojiguda", "stop_id": "src5_1823", "stop_lat": 17.4362, "stop_lon": 78.66288, "source": "src5" }, "geometry": { "type": "Point", "coordinates": [ 78.66288, 17.4362 ] } },
{ "type": "Feature", "properties": { "stop_name": "anurag lab", "stop_id": "src5_1016", "stop_lat": 17.33403, "stop_lon": 78.49265, "source": "src5" }, "geometry": { "type": "Point", "coordinates": [ 78.49265, 17.33403 ] } },
{ "type": "Feature", "properties": { "stop_name": "anutex", "stop_id": "src5_3628", "stop_lat": 17.45021, "stop_lon": 78.53244, "source": "src5" }, "geometry": { "type": "Point", "coordinates": [ 78.53244, 17.45021 ] } },
{ "type": "Feature", "properties": { "stop_name": "anutex", "stop_id": "src5_3630", "stop_lat": 17.45037, "stop_lon": 78.53289, "source": "src5" }, "geometry": { "type": "Point", "coordinates": [ 78.53289, 17.45037 ] } },
{ "type": "Feature", "properties": { "stop_name": "aparna company", "stop_id": "src5_620", "stop_lat": 17.52799, "stop_lon": 78.35456, "source": "src5" }, "geometry": { "type": "Point", "coordinates": [ 78.35456, 17.52799 ] } },
{ "type": "Feature", "properties": { "stop_name": "aparna company", "stop_id": "src5_621", "stop_lat": 17.52803, "stop_lon": 78.3544, "source": "src5" }, "geometry": { "type": "Point", "coordinates": [ 78.3544, 17.52803 ] } },
{ "type": "Feature", "properties": { "stop_name": "aperl", "stop_id": "src5_370", "stop_lat": 17.32442, "stop_lon": 78.37434, "source": "src5" }, "geometry": { "type": "Point", "coordinates": [ 78.37434, 17.32442 ] } },
{ "type": "Feature", "properties": { "stop_name": "aperl", "stop_id": "src5_371", "stop_lat": 17.32464, "stop_lon": 78.37434, "source": "src5" }, "geometry": { "type": "Point", "coordinates": [ 78.37434, 17.32464 ] } },
{ "type": "Feature", "properties": { "stop_name": "apiic mindspace junction bus stop", "stop_id": "src5_479", "stop_lat": 17.44067, "stop_lon": 78.37702, "source": "src5" }, "geometry": { "type": "Point", "coordinates": [ 78.37702, 17.44067 ] } },
{ "type": "Feature", "properties": { "stop_name": "apollo hospital", "stop_id": "src5_2216", "stop_lat": 17.41864, "stop_lon": 78.41299, "source": "src5" }, "geometry": { "type": "Point", "coordinates": [ 78.41299, 17.41864 ] } },
{ "type": "Feature", "properties": { "stop_name": "apollo hospital", "stop_id": "src5_730", "stop_lat": 17.41805, "stop_lon": 78.41328, "source": "src5" }, "geometry": { "type": "Point", "coordinates": [ 78.41328, 17.41805 ] } },
{ "type": "Feature", "properties": { "stop_name": "appa", "stop_id": "src5_396", "stop_lat": 17.35006, "stop_lon": 78.36164, "source": "src5" }, "geometry": { "type": "Point", "coordinates": [ 78.36164, 17.35006 ] } },
{ "type": "Feature", "properties": { "stop_name": "appa", "stop_id": "src5_401", "stop_lat": 17.35063, "stop_lon": 78.36222, "source": "src5" }, "geometry": { "type": "Point", "coordinates": [ 78.36222, 17.35063 ] } },
{ "type": "Feature", "properties": { "stop_name": "appa junction|orr appa junction bus stop", "stop_id": "src5_397|src5_398", "stop_lat": 17.34957, "stop_lon": 78.36016, "source": "src5" }, "geometry": { "type": "Point", "coordinates": [ 78.36016, 17.34957 ] } },
{ "type": "Feature", "properties": { "stop_name": "apperal park bus stop", "stop_id": "src5_903", "stop_lat": 17.55827, "stop_lon": 78.47235, "source": "src5" }, "geometry": { "type": "Point", "coordinates": [ 78.47235, 17.55827 ] } },
{ "type": "Feature", "properties": { "stop_name": "appo jigudda", "stop_id": "src5_148", "stop_lat": 17.3609, "stop_lon": 78.27325, "source": "src5" }, "geometry": { "type": "Point", "coordinates": [ 78.27325, 17.3609 ] } },
{ "type": "Feature", "properties": { "stop_name": "appo jigudda", "stop_id": "src5_149", "stop_lat": 17.3607, "stop_lon": 78.27318, "source": "src5" }, "geometry": { "type": "Point", "coordinates": [ 78.27318, 17.3607 ] } },
{ "type": "Feature", "properties": { "stop_name": "appojiguda bus stop", "stop_id": "src5_139", "stop_lat": 17.37173, "stop_lon": 78.27556, "source": "src5" }, "geometry": { "type": "Point", "coordinates": [ 78.27556, 17.37173 ] } },
{ "type": "Feature", "properties": { "stop_name": "apsrtc b.m.r.s school bus stop", "stop_id": "src5_1794", "stop_lat": 17.43111, "stop_lon": 78.60836, "source": "src5" }, "geometry": { "type": "Point", "coordinates": [ 78.60836, 17.43111 ] } },
{ "type": "Feature", "properties": { "stop_name": "apsrtc bus station", "stop_id": "src5_3947", "stop_lat": 17.36745, "stop_lon": 78.58152, "source": "src5" }, "geometry": { "type": "Point", "coordinates": [ 78.58152, 17.36745 ] } },
{ "type": "Feature", "properties": { "stop_name": "apsrtc bus stop", "stop_id": "src5_2053", "stop_lat": 17.45623, "stop_lon": 78.37744, "source": "src5" }, "geometry": { "type": "Point", "coordinates": [ 78.37744, 17.45623 ] } },
{ "type": "Feature", "properties": { "stop_name": "apsrtc bus stop", "stop_id": "src5_2164", "stop_lat": 17.48469, "stop_lon": 78.40649, "source": "src5" }, "geometry": { "type": "Point", "coordinates": [ 78.40649, 17.48469 ] } },
{ "type": "Feature", "properties": { "stop_name": "apsrtc bus stop", "stop_id": "src5_3622", "stop_lat": 17.44622, "stop_lon": 78.52637, "source": "src5" }, "geometry": { "type": "Point", "coordinates": [ 78.52637, 17.44622 ] } },
{ "type": "Feature", "properties": { "stop_name": "apsrtc bus stop", "stop_id": "src5_531", "stop_lat": 17.48523, "stop_lon": 78.39418, "source": "src5" }, "geometry": { "type": "Point", "coordinates": [ 78.39418, 17.48523 ] } },
{ "type": "Feature", "properties": { "stop_name": "apsrtc commuter amenity centre", "stop_id": "src5_2372", "stop_lat": 17.47348, "stop_lon": 78.42682, "source": "src5" }, "geometry": { "type": "Point", "coordinates": [ 78.42682, 17.47348 ] } },
{ "type": "Feature", "properties": { "stop_name": "apsrtc kukatpally bus stand", "stop_id": "src5_2371", "stop_lat": 17.47347, "stop_lon": 78.4268, "source": "src5" }, "geometry": { "type": "Point", "coordinates": [ 78.4268, 17.47347 ] } },
{ "type": "Feature", "properties": { "stop_name": "apsrtc ranigunj-1 & 2 depots", "stop_id": "src5_3141", "stop_lat": 17.43077, "stop_lon": 78.48804, "source": "src5" }, "geometry": { "type": "Point", "coordinates": [ 78.48804, 17.43077 ] } },
{ "type": "Feature", "properties": { "stop_name": "apsrtc-shankarpalli", "stop_id": "src5_86", "stop_lat": 17.45559, "stop_lon": 78.1311, "source": "src5" }, "geometry": { "type": "Point", "coordinates": [ 78.1311, 17.45559 ] } },
{ "type": "Feature", "properties": { "stop_name": "aptdc bus stop", "stop_id": "src5_2685", "stop_lat": 17.35897, "stop_lon": 78.47108, "source": "src5" }, "geometry": { "type": "Point", "coordinates": [ 78.47108, 17.35897 ] } },
{ "type": "Feature", "properties": { "stop_name": "aptdc hop-on hop-off bus stop", "stop_id": "src5_2875", "stop_lat": 17.37195, "stop_lon": 78.48025, "source": "src5" }, "geometry": { "type": "Point", "coordinates": [ 78.48025, 17.37195 ] } },
{ "type": "Feature", "properties": { "stop_name": "apurupa colony", "stop_id": "src5_947", "stop_lat": 17.53094, "stop_lon": 78.44931, "source": "src5" }, "geometry": { "type": "Point", "coordinates": [ 78.44931, 17.53094 ] } },
{ "type": "Feature", "properties": { "stop_name": "apurupa colony", "stop_id": "src5_948", "stop_lat": 17.53069, "stop_lon": 78.44931, "source": "src5" }, "geometry": { "type": "Point", "coordinates": [ 78.44931, 17.53069 ] } },
{ "type": "Feature", "properties": { "stop_name": "aram ghar", "stop_id": "src5_682", "stop_lat": 17.32041, "stop_lon": 78.42969, "source": "src5" }, "geometry": { "type": "Point", "coordinates": [ 78.42969, 17.32041 ] } },
{ "type": "Feature", "properties": { "stop_name": "aramghar", "stop_id": "src5_673", "stop_lat": 17.32153, "stop_lon": 78.43255, "source": "src5" }, "geometry": { "type": "Point", "coordinates": [ 78.43255, 17.32153 ] } },
{ "type": "Feature", "properties": { "stop_name": "aramghar", "stop_id": "src5_675", "stop_lat": 17.3218, "stop_lon": 78.43133, "source": "src5" }, "geometry": { "type": "Point", "coordinates": [ 78.43133, 17.3218 ] } },
{ "type": "Feature", "properties": { "stop_name": "aramghar", "stop_id": "src5_679", "stop_lat": 17.32322, "stop_lon": 78.4303, "source": "src5" }, "geometry": { "type": "Point", "coordinates": [ 78.4303, 17.32322 ] } },
{ "type": "Feature", "properties": { "stop_name": "aramghar", "stop_id": "src5_694", "stop_lat": 17.32677, "stop_lon": 78.42555, "source": "src5" }, "geometry": { "type": "Point", "coordinates": [ 78.42555, 17.32677 ] } },
{ "type": "Feature", "properties": { "stop_name": "aramghar x roads", "stop_id": "src5_672", "stop_lat": 17.32258, "stop_lon": 78.43276, "source": "src5" }, "geometry": { "type": "Point", "coordinates": [ 78.43276, 17.32258 ] } },
{ "type": "Feature", "properties": { "stop_name": "aramghar x roads", "stop_id": "src5_674", "stop_lat": 17.32114, "stop_lon": 78.43165, "source": "src5" }, "geometry": { "type": "Point", "coordinates": [ 78.43165, 17.32114 ] } },
{ "type": "Feature", "properties": { "stop_name": "arch temple", "stop_id": "src5_1821", "stop_lat": 17.45894, "stop_lon": 78.59424, "source": "src5" }, "geometry": { "type": "Point", "coordinates": [ 78.59424, 17.45894 ] } },
{ "type": "Feature", "properties": { "stop_name": "are bus stop", "stop_id": "src5_386", "stop_lat": 17.3214, "stop_lon": 78.39958, "source": "src5" }, "geometry": { "type": "Point", "coordinates": [ 78.39958, 17.3214 ] } },
{ "type": "Feature", "properties": { "stop_name": "arts college bus stop", "stop_id": "src5_3415", "stop_lat": 17.41377, "stop_lon": 78.5214, "source": "src5" }, "geometry": { "type": "Point", "coordinates": [ 78.5214, 17.41377 ] } },
{ "type": "Feature", "properties": { "stop_name": "arts college railway station", "stop_id": "src5_3422", "stop_lat": 17.41775, "stop_lon": 78.51931, "source": "src5" }, "geometry": { "type": "Point", "coordinates": [ 78.51931, 17.41775 ] } },
{ "type": "Feature", "properties": { "stop_name": "arts college railway station", "stop_id": "src5_3424", "stop_lat": 17.41774, "stop_lon": 78.51946, "source": "src5" }, "geometry": { "type": "Point", "coordinates": [ 78.51946, 17.41774 ] } },
{ "type": "Feature", "properties": { "stop_name": "arunodaya nagar", "stop_id": "src5_1426", "stop_lat": 17.37346, "stop_lon": 78.56307, "source": "src5" }, "geometry": { "type": "Point", "coordinates": [ 78.56307, 17.37346 ] } },
{ "type": "Feature", "properties": { "stop_name": "arunodaya nagar", "stop_id": "src5_1427", "stop_lat": 17.37325, "stop_lon": 78.56328, "source": "src5" }, "geometry": { "type": "Point", "coordinates": [ 78.56328, 17.37325 ] } },
{ "type": "Feature", "properties": { "stop_name": "as rao nagar", "stop_id": "src5_1573", "stop_lat": 17.48057, "stop_lon": 78.55648, "source": "src5" }, "geometry": { "type": "Point", "coordinates": [ 78.55648, 17.48057 ] } },
{ "type": "Feature", "properties": { "stop_name": "as rao nagar", "stop_id": "src5_1580", "stop_lat": 17.47953, "stop_lon": 78.55834, "source": "src5" }, "geometry": { "type": "Point", "coordinates": [ 78.55834, 17.47953 ] } },
{ "type": "Feature", "properties": { "stop_name": "as rao nagar (pickup van\/bus)", "stop_id": "src5_1587", "stop_lat": 17.47796, "stop_lon": 78.5614, "source": "src5" }, "geometry": { "type": "Point", "coordinates": [ 78.5614, 17.47796 ] } },
{ "type": "Feature", "properties": { "stop_name": "asbestas colony bus stop", "stop_id": "src5_893", "stop_lat": 17.49361, "stop_lon": 78.42493, "source": "src5" }, "geometry": { "type": "Point", "coordinates": [ 78.42493, 17.49361 ] } },
{ "type": "Feature", "properties": { "stop_name": "asbestos colony", "stop_id": "src5_865", "stop_lat": 17.49329, "stop_lon": 78.43576, "source": "src5" }, "geometry": { "type": "Point", "coordinates": [ 78.43576, 17.49329 ] } },
{ "type": "Feature", "properties": { "stop_name": "asbestos colony", "stop_id": "src5_866", "stop_lat": 17.49323, "stop_lon": 78.43551, "source": "src5" }, "geometry": { "type": "Point", "coordinates": [ 78.43551, 17.49323 ] } },
{ "type": "Feature", "properties": { "stop_name": "asbestos kamman bus stop", "stop_id": "src5_861", "stop_lat": 17.49502, "stop_lon": 78.43173, "source": "src5" }, "geometry": { "type": "Point", "coordinates": [ 78.43173, 17.49502 ] } },
{ "type": "Feature", "properties": { "stop_name": "ascendas", "stop_id": "src5_2049", "stop_lat": 17.43515, "stop_lon": 78.38317, "source": "src5" }, "geometry": { "type": "Point", "coordinates": [ 78.38317, 17.43515 ] } },
{ "type": "Feature", "properties": { "stop_name": "ascendas", "stop_id": "src5_525", "stop_lat": 17.43579, "stop_lon": 78.38197, "source": "src5" }, "geometry": { "type": "Point", "coordinates": [ 78.38197, 17.43579 ] } },
{ "type": "Feature", "properties": { "stop_name": "ashish gardens", "stop_id": "src5_2986", "stop_lat": 17.45742, "stop_lon": 78.47804, "source": "src5" }, "geometry": { "type": "Point", "coordinates": [ 78.47804, 17.45742 ] } },
{ "type": "Feature", "properties": { "stop_name": "ashish gardens", "stop_id": "src5_2987", "stop_lat": 17.45733, "stop_lon": 78.4784, "source": "src5" }, "geometry": { "type": "Point", "coordinates": [ 78.4784, 17.45733 ] } },
{ "type": "Feature", "properties": { "stop_name": "ashok gardens", "stop_id": "src5_3002", "stop_lat": 17.46897, "stop_lon": 78.48321, "source": "src5" }, "geometry": { "type": "Point", "coordinates": [ 78.48321, 17.46897 ] } },
{ "type": "Feature", "properties": { "stop_name": "ashok gardens", "stop_id": "src5_3003", "stop_lat": 17.46891, "stop_lon": 78.48333, "source": "src5" }, "geometry": { "type": "Point", "coordinates": [ 78.48333, 17.46891 ] } },
{ "type": "Feature", "properties": { "stop_name": "ashok nagar", "stop_id": "src5_1517", "stop_lat": 17.44969, "stop_lon": 78.58052, "source": "src5" }, "geometry": { "type": "Point", "coordinates": [ 78.58052, 17.44969 ] } },
{ "type": "Feature", "properties": { "stop_name": "ashok nagar", "stop_id": "src5_1523", "stop_lat": 17.44998, "stop_lon": 78.58101, "source": "src5" }, "geometry": { "type": "Point", "coordinates": [ 78.58101, 17.44998 ] } },
{ "type": "Feature", "properties": { "stop_name": "ashok nagar", "stop_id": "src5_290", "stop_lat": 17.50322, "stop_lon": 78.31087, "source": "src5" }, "geometry": { "type": "Point", "coordinates": [ 78.31087, 17.50322 ] } },
{ "type": "Feature", "properties": { "stop_name": "ashok nagar", "stop_id": "src5_299", "stop_lat": 17.50699, "stop_lon": 78.30387, "source": "src5" }, "geometry": { "type": "Point", "coordinates": [ 78.30387, 17.50699 ] } },
{ "type": "Feature", "properties": { "stop_name": "ashok nagar", "stop_id": "src5_3100", "stop_lat": 17.40877, "stop_lon": 78.49057, "source": "src5" }, "geometry": { "type": "Point", "coordinates": [ 78.49057, 17.40877 ] } },
{ "type": "Feature", "properties": { "stop_name": "ashok nagar", "stop_id": "src5_3101", "stop_lat": 17.4069, "stop_lon": 78.48971, "source": "src5" }, "geometry": { "type": "Point", "coordinates": [ 78.48971, 17.4069 ] } },
{ "type": "Feature", "properties": { "stop_name": "ashok nagar", "stop_id": "src5_3102", "stop_lat": 17.40873, "stop_lon": 78.49108, "source": "src5" }, "geometry": { "type": "Point", "coordinates": [ 78.49108, 17.40873 ] } },
{ "type": "Feature", "properties": { "stop_name": "ashok nagar", "stop_id": "src5_3105", "stop_lat": 17.40597, "stop_lon": 78.48968, "source": "src5" }, "geometry": { "type": "Point", "coordinates": [ 78.48968, 17.40597 ] } },
{ "type": "Feature", "properties": { "stop_name": "ashok nagar (bhel)", "stop_id": "src5_289", "stop_lat": 17.50486, "stop_lon": 78.30764, "source": "src5" }, "geometry": { "type": "Point", "coordinates": [ 78.30764, 17.50486 ] } },
{ "type": "Feature", "properties": { "stop_name": "ashok nagar (bhel)", "stop_id": "src5_292", "stop_lat": 17.50225, "stop_lon": 78.31178, "source": "src5" }, "geometry": { "type": "Point", "coordinates": [ 78.31178, 17.50225 ] } },
{ "type": "Feature", "properties": { "stop_name": "ashok nagar bus stop", "stop_id": "src5_1515", "stop_lat": 17.44966, "stop_lon": 78.58043, "source": "src5" }, "geometry": { "type": "Point", "coordinates": [ 78.58043, 17.44966 ] } },
{ "type": "Feature", "properties": { "stop_name": "ashok nagar bus stop", "stop_id": "src5_286", "stop_lat": 17.50422, "stop_lon": 78.30862, "source": "src5" }, "geometry": { "type": "Point", "coordinates": [ 78.30862, 17.50422 ] } },
{ "type": "Feature", "properties": { "stop_name": "ashok nagar bus stop", "stop_id": "src5_287", "stop_lat": 17.50452, "stop_lon": 78.30873, "source": "src5" }, "geometry": { "type": "Point", "coordinates": [ 78.30873, 17.50452 ] } },
{ "type": "Feature", "properties": { "stop_name": "ashok nagar bus stop", "stop_id": "src5_3098", "stop_lat": 17.40835, "stop_lon": 78.48966, "source": "src5" }, "geometry": { "type": "Point", "coordinates": [ 78.48966, 17.40835 ] } },
{ "type": "Feature", "properties": { "stop_name": "ashok nagar lp", "stop_id": "src5_288", "stop_lat": 17.50466, "stop_lon": 78.30845, "source": "src5" }, "geometry": { "type": "Point", "coordinates": [ 78.30845, 17.50466 ] } },
{ "type": "Feature", "properties": { "stop_name": "ashok nagar x road", "stop_id": "src5_3099", "stop_lat": 17.40884, "stop_lon": 78.48957, "source": "src5" }, "geometry": { "type": "Point", "coordinates": [ 78.48957, 17.40884 ] } },
{ "type": "Feature", "properties": { "stop_name": "ashok nagar x road", "stop_id": "src5_3103", "stop_lat": 17.41001, "stop_lon": 78.48922, "source": "src5" }, "geometry": { "type": "Point", "coordinates": [ 78.48922, 17.41001 ] } },
{ "type": "Feature", "properties": { "stop_name": "ashok nagar x road", "stop_id": "src5_3104", "stop_lat": 17.4102, "stop_lon": 78.4892, "source": "src5" }, "geometry": { "type": "Point", "coordinates": [ 78.4892, 17.4102 ] } },
{ "type": "Feature", "properties": { "stop_name": "asif nagar", "stop_id": "src5_2504", "stop_lat": 17.38988, "stop_lon": 78.45162, "source": "src5" }, "geometry": { "type": "Point", "coordinates": [ 78.45162, 17.38988 ] } },
{ "type": "Feature", "properties": { "stop_name": "asif nagar", "stop_id": "src5_2506", "stop_lat": 17.38999, "stop_lon": 78.45182, "source": "src5" }, "geometry": { "type": "Point", "coordinates": [ 78.45182, 17.38999 ] } },
{ "type": "Feature", "properties": { "stop_name": "asmathpur bus stop", "stop_id": "src5_1893", "stop_lat": 17.12486, "stop_lon": 78.72586, "source": "src5" }, "geometry": { "type": "Point", "coordinates": [ 78.72586, 17.12486 ] } },
{ "type": "Feature", "properties": { "stop_name": "asrao nagar", "stop_id": "src5_1578", "stop_lat": 17.47991, "stop_lon": 78.55718, "source": "src5" }, "geometry": { "type": "Point", "coordinates": [ 78.55718, 17.47991 ] } },
{ "type": "Feature", "properties": { "stop_name": "assembly \/ air", "stop_id": "src5_2743", "stop_lat": 17.40017, "stop_lon": 78.47001, "source": "src5" }, "geometry": { "type": "Point", "coordinates": [ 78.47001, 17.40017 ] } },
{ "type": "Feature", "properties": { "stop_name": "assembly \/ air", "stop_id": "src5_2757", "stop_lat": 17.40144, "stop_lon": 78.4699, "source": "src5" }, "geometry": { "type": "Point", "coordinates": [ 78.4699, 17.40144 ] } },
{ "type": "Feature", "properties": { "stop_name": "athvelly", "stop_id": "src5_1304", "stop_lat": 17.6497, "stop_lon": 78.48793, "source": "src5" }, "geometry": { "type": "Point", "coordinates": [ 78.48793, 17.6497 ] } },
{ "type": "Feature", "properties": { "stop_name": "athvelly", "stop_id": "src5_1305", "stop_lat": 17.64988, "stop_lon": 78.48777, "source": "src5" }, "geometry": { "type": "Point", "coordinates": [ 78.48777, 17.64988 ] } },
{ "type": "Feature", "properties": { "stop_name": "attapur", "stop_id": "src5_2282", "stop_lat": 17.36427, "stop_lon": 78.4282, "source": "src5" }, "geometry": { "type": "Point", "coordinates": [ 78.4282, 17.36427 ] } },
{ "type": "Feature", "properties": { "stop_name": "attapur", "stop_id": "src5_786", "stop_lat": 17.37039, "stop_lon": 78.42919, "source": "src5" }, "geometry": { "type": "Point", "coordinates": [ 78.42919, 17.37039 ] } },
{ "type": "Feature", "properties": { "stop_name": "attapur bus stop", "stop_id": "src5_2291", "stop_lat": 17.37036, "stop_lon": 78.42901, "source": "src5" }, "geometry": { "type": "Point", "coordinates": [ 78.42901, 17.37036 ] } },
{ "type": "Feature", "properties": { "stop_name": "attapur bus stop", "stop_id": "src5_787", "stop_lat": 17.37023, "stop_lon": 78.42939, "source": "src5" }, "geometry": { "type": "Point", "coordinates": [ 78.42939, 17.37023 ] } },
{ "type": "Feature", "properties": { "stop_name": "attapur x road", "stop_id": "src5_2292", "stop_lat": 17.37003, "stop_lon": 78.42946, "source": "src5" }, "geometry": { "type": "Point", "coordinates": [ 78.42946, 17.37003 ] } },
{ "type": "Feature", "properties": { "stop_name": "aushapur railway gate", "stop_id": "src5_1948", "stop_lat": 17.45276, "stop_lon": 78.68516, "source": "src5" }, "geometry": { "type": "Point", "coordinates": [ 78.68516, 17.45276 ] } },
{ "type": "Feature", "properties": { "stop_name": "aushapur railway gate", "stop_id": "src5_1949", "stop_lat": 17.45289, "stop_lon": 78.68526, "source": "src5" }, "geometry": { "type": "Point", "coordinates": [ 78.68526, 17.45289 ] } },
{ "type": "Feature", "properties": { "stop_name": "autonagar", "stop_id": "src5_3931", "stop_lat": 17.33597, "stop_lon": 78.57888, "source": "src5" }, "geometry": { "type": "Point", "coordinates": [ 78.57888, 17.33597 ] } },
{ "type": "Feature", "properties": { "stop_name": "autonagar", "stop_id": "src5_3935", "stop_lat": 17.33604, "stop_lon": 78.58069, "source": "src5" }, "geometry": { "type": "Point", "coordinates": [ 78.58069, 17.33604 ] } },
{ "type": "Feature", "properties": { "stop_name": "avancha bus stop", "stop_id": "src5_184", "stop_lat": 17.71735, "stop_lon": 78.23149, "source": "src5" }, "geometry": { "type": "Point", "coordinates": [ 78.23149, 17.71735 ] } },
{ "type": "Feature", "properties": { "stop_name": "aware global hospital", "stop_id": "src5_3676", "stop_lat": 17.34325, "stop_lon": 78.53799, "source": "src5" }, "geometry": { "type": "Point", "coordinates": [ 78.53799, 17.34325 ] } },
{ "type": "Feature", "properties": { "stop_name": "aware global hospital", "stop_id": "src5_3677", "stop_lat": 17.34346, "stop_lon": 78.53809, "source": "src5" }, "geometry": { "type": "Point", "coordinates": [ 78.53809, 17.34346 ] } },
{ "type": "Feature", "properties": { "stop_name": "ayodhya junction", "stop_id": "src5_1257", "stop_lat": 17.58918, "stop_lon": 78.47338, "source": "src5" }, "geometry": { "type": "Point", "coordinates": [ 78.47338, 17.58918 ] } },
{ "type": "Feature", "properties": { "stop_name": "ayodhya junction", "stop_id": "src5_1259", "stop_lat": 17.58935, "stop_lon": 78.47297, "source": "src5" }, "geometry": { "type": "Point", "coordinates": [ 78.47297, 17.58935 ] } },
{ "type": "Feature", "properties": { "stop_name": "ayyappa colony", "stop_id": "src5_1854", "stop_lat": 17.49637, "stop_lon": 78.59564, "source": "src5" }, "geometry": { "type": "Point", "coordinates": [ 78.59564, 17.49637 ] } },
{ "type": "Feature", "properties": { "stop_name": "ayyappa colony", "stop_id": "src5_1855", "stop_lat": 17.49639, "stop_lon": 78.59548, "source": "src5" }, "geometry": { "type": "Point", "coordinates": [ 78.59548, 17.49639 ] } },
{ "type": "Feature", "properties": { "stop_name": "ayyappa ground bus station", "stop_id": "src5_800", "stop_lat": 17.44089, "stop_lon": 78.43679, "source": "src5" }, "geometry": { "type": "Point", "coordinates": [ 78.43679, 17.44089 ] } },
{ "type": "Feature", "properties": { "stop_name": "azampura", "stop_id": "src5_1115", "stop_lat": 17.3775, "stop_lon": 78.48914, "source": "src5" }, "geometry": { "type": "Point", "coordinates": [ 78.48914, 17.3775 ] } },
{ "type": "Feature", "properties": { "stop_name": "azampura", "stop_id": "src5_3046", "stop_lat": 17.37741, "stop_lon": 78.48883, "source": "src5" }, "geometry": { "type": "Point", "coordinates": [ 78.48883, 17.37741 ] } },
{ "type": "Feature", "properties": { "stop_name": "aziz nagar 3", "stop_id": "src5_202", "stop_lat": 17.33384, "stop_lon": 78.32833, "source": "src5" }, "geometry": { "type": "Point", "coordinates": [ 78.32833, 17.33384 ] } },
{ "type": "Feature", "properties": { "stop_name": "aziz nagar 3", "stop_id": "src5_204", "stop_lat": 17.33433, "stop_lon": 78.32819, "source": "src5" }, "geometry": { "type": "Point", "coordinates": [ 78.32819, 17.33433 ] } },
{ "type": "Feature", "properties": { "stop_name": "aziz nagar bus stop", "stop_id": "src5_206", "stop_lat": 17.34422, "stop_lon": 78.32466, "source": "src5" }, "geometry": { "type": "Point", "coordinates": [ 78.32466, 17.34422 ] } },
{ "type": "Feature", "properties": { "stop_name": "aziz nagar x road", "stop_id": "src5_207", "stop_lat": 17.34424, "stop_lon": 78.32467, "source": "src5" }, "geometry": { "type": "Point", "coordinates": [ 78.32467, 17.34424 ] } },
{ "type": "Feature", "properties": { "stop_name": "aziz nagar x road", "stop_id": "src5_208", "stop_lat": 17.3441, "stop_lon": 78.32487, "source": "src5" }, "geometry": { "type": "Point", "coordinates": [ 78.32487, 17.3441 ] } },
{ "type": "Feature", "properties": { "stop_name": "b h e l", "stop_id": "src5_1956", "stop_lat": 17.49174, "stop_lon": 78.29215, "source": "src5" }, "geometry": { "type": "Point", "coordinates": [ 78.29215, 17.49174 ] } },
{ "type": "Feature", "properties": { "stop_name": "b n reddy", "stop_id": "src5_1357", "stop_lat": 17.32074, "stop_lon": 78.56154, "source": "src5" }, "geometry": { "type": "Point", "coordinates": [ 78.56154, 17.32074 ] } },
{ "type": "Feature", "properties": { "stop_name": "b n reddy nagar bus stop towards ibrahimpatnam", "stop_id": "src5_1354", "stop_lat": 17.31607, "stop_lon": 78.56167, "source": "src5" }, "geometry": { "type": "Point", "coordinates": [ 78.56167, 17.31607 ] } },
{ "type": "Feature", "properties": { "stop_name": "b.k. enclave", "stop_id": "src5_2006", "stop_lat": 17.51898, "stop_lon": 78.35618, "source": "src5" }, "geometry": { "type": "Point", "coordinates": [ 78.35618, 17.51898 ] } },
{ "type": "Feature", "properties": { "stop_name": "b.k. enclave", "stop_id": "src5_2007", "stop_lat": 17.51951, "stop_lon": 78.35598, "source": "src5" }, "geometry": { "type": "Point", "coordinates": [ 78.35598, 17.51951 ] } },
{ "type": "Feature", "properties": { "stop_name": "b.n. reddy nagar", "stop_id": "src5_1363", "stop_lat": 17.32011, "stop_lon": 78.56066, "source": "src5" }, "geometry": { "type": "Point", "coordinates": [ 78.56066, 17.32011 ] } },
{ "type": "Feature", "properties": { "stop_name": "b.n. reddy nagar", "stop_id": "src5_1367", "stop_lat": 17.31683, "stop_lon": 78.56111, "source": "src5" }, "geometry": { "type": "Point", "coordinates": [ 78.56111, 17.31683 ] } },
{ "type": "Feature", "properties": { "stop_name": "b.n. reddy nagar sagar complex", "stop_id": "src5_1385", "stop_lat": 17.31271, "stop_lon": 78.56369, "source": "src5" }, "geometry": { "type": "Point", "coordinates": [ 78.56369, 17.31271 ] } },
{ "type": "Feature", "properties": { "stop_name": "b.n. reddy nagar(bager hospital)", "stop_id": "src5_1361", "stop_lat": 17.32185, "stop_lon": 78.55984, "source": "src5" }, "geometry": { "type": "Point", "coordinates": [ 78.55984, 17.32185 ] } },
{ "type": "Feature", "properties": { "stop_name": "baba nagar", "stop_id": "src5_1027", "stop_lat": 17.33023, "stop_lon": 78.48654, "source": "src5" }, "geometry": { "type": "Point", "coordinates": [ 78.48654, 17.33023 ] } },
{ "type": "Feature", "properties": { "stop_name": "baba nagar", "stop_id": "src5_1029", "stop_lat": 17.33045, "stop_lon": 78.48634, "source": "src5" }, "geometry": { "type": "Point", "coordinates": [ 78.48634, 17.33045 ] } },
{ "type": "Feature", "properties": { "stop_name": "baba temple alkapuri", "stop_id": "src5_3830", "stop_lat": 17.36537, "stop_lon": 78.55313, "source": "src5" }, "geometry": { "type": "Point", "coordinates": [ 78.55313, 17.36537 ] } },
{ "type": "Feature", "properties": { "stop_name": "baba temple alkapuri", "stop_id": "src5_3831", "stop_lat": 17.36551, "stop_lon": 78.5528, "source": "src5" }, "geometry": { "type": "Point", "coordinates": [ 78.5528, 17.36551 ] } },
{ "type": "Feature", "properties": { "stop_name": "babu jagjeevan ram bhavan", "stop_id": "src5_3703", "stop_lat": 17.36585, "stop_lon": 78.54336, "source": "src5" }, "geometry": { "type": "Point", "coordinates": [ 78.54336, 17.36585 ] } },
{ "type": "Feature", "properties": { "stop_name": "babu jagjeevan ram bhavan telephone colony arch", "stop_id": "src5_3704", "stop_lat": 17.36594, "stop_lon": 78.54327, "source": "src5" }, "geometry": { "type": "Point", "coordinates": [ 78.54327, 17.36594 ] } },
{ "type": "Feature", "properties": { "stop_name": "bacharam", "stop_id": "src5_1941", "stop_lat": 17.39306, "stop_lon": 78.69008, "source": "src5" }, "geometry": { "type": "Point", "coordinates": [ 78.69008, 17.39306 ] } },
{ "type": "Feature", "properties": { "stop_name": "bacharam 1", "stop_id": "src5_1942", "stop_lat": 17.39441, "stop_lon": 78.68991, "source": "src5" }, "geometry": { "type": "Point", "coordinates": [ 78.68991, 17.39441 ] } },
{ "type": "Feature", "properties": { "stop_name": "bachupally", "stop_id": "src5_594", "stop_lat": 17.541, "stop_lon": 78.36354, "source": "src5" }, "geometry": { "type": "Point", "coordinates": [ 78.36354, 17.541 ] } },
{ "type": "Feature", "properties": { "stop_name": "bachupally", "stop_id": "src5_596", "stop_lat": 17.54031, "stop_lon": 78.3621, "source": "src5" }, "geometry": { "type": "Point", "coordinates": [ 78.3621, 17.54031 ] } },
{ "type": "Feature", "properties": { "stop_name": "bachupally volvo comp", "stop_id": "src5_613", "stop_lat": 17.53021, "stop_lon": 78.35577, "source": "src5" }, "geometry": { "type": "Point", "coordinates": [ 78.35577, 17.53021 ] } },
{ "type": "Feature", "properties": { "stop_name": "bachupally x road", "stop_id": "src5_2008", "stop_lat": 17.52196, "stop_lon": 78.35637, "source": "src5" }, "geometry": { "type": "Point", "coordinates": [ 78.35637, 17.52196 ] } },
{ "type": "Feature", "properties": { "stop_name": "bachupally x road", "stop_id": "src5_2009", "stop_lat": 17.52207, "stop_lon": 78.35657, "source": "src5" }, "geometry": { "type": "Point", "coordinates": [ 78.35657, 17.52207 ] } },
{ "type": "Feature", "properties": { "stop_name": "bachupally x road", "stop_id": "src5_593", "stop_lat": 17.54091, "stop_lon": 78.36408, "source": "src5" }, "geometry": { "type": "Point", "coordinates": [ 78.36408, 17.54091 ] } },
{ "type": "Feature", "properties": { "stop_name": "bachupally x roads", "stop_id": "src5_595", "stop_lat": 17.54074, "stop_lon": 78.36402, "source": "src5" }, "geometry": { "type": "Point", "coordinates": [ 78.36402, 17.54074 ] } },
{ "type": "Feature", "properties": { "stop_name": "badangpet", "stop_id": "src5_3500", "stop_lat": 17.30706, "stop_lon": 78.52541, "source": "src5" }, "geometry": { "type": "Point", "coordinates": [ 78.52541, 17.30706 ] } },
{ "type": "Feature", "properties": { "stop_name": "badangpet", "stop_id": "src5_3501", "stop_lat": 17.30705, "stop_lon": 78.52528, "source": "src5" }, "geometry": { "type": "Point", "coordinates": [ 78.52528, 17.30705 ] } },
{ "type": "Feature", "properties": { "stop_name": "badangpet gram panchayat kamaan", "stop_id": "src5_1000", "stop_lat": 17.31344, "stop_lon": 78.5229, "source": "src5" }, "geometry": { "type": "Point", "coordinates": [ 78.5229, 17.31344 ] } },
{ "type": "Feature", "properties": { "stop_name": "badangpet gram panchayat office", "stop_id": "src5_3497", "stop_lat": 17.30523, "stop_lon": 78.52548, "source": "src5" }, "geometry": { "type": "Point", "coordinates": [ 78.52548, 17.30523 ] } },
{ "type": "Feature", "properties": { "stop_name": "badangpet gram panchayat office", "stop_id": "src5_3498", "stop_lat": 17.30527, "stop_lon": 78.52532, "source": "src5" }, "geometry": { "type": "Point", "coordinates": [ 78.52532, 17.30527 ] } },
{ "type": "Feature", "properties": { "stop_name": "bagh lingampally", "stop_id": "src5_3092", "stop_lat": 17.39711, "stop_lon": 78.49701, "source": "src5" }, "geometry": { "type": "Point", "coordinates": [ 78.49701, 17.39711 ] } },
{ "type": "Feature", "properties": { "stop_name": "bagh lingampally", "stop_id": "src5_3094", "stop_lat": 17.39738, "stop_lon": 78.4974, "source": "src5" }, "geometry": { "type": "Point", "coordinates": [ 78.4974, 17.39738 ] } },
{ "type": "Feature", "properties": { "stop_name": "baghlingampally", "stop_id": "src5_3090", "stop_lat": 17.39645, "stop_lon": 78.49599, "source": "src5" }, "geometry": { "type": "Point", "coordinates": [ 78.49599, 17.39645 ] } },
{ "type": "Feature", "properties": { "stop_name": "baghlingampally", "stop_id": "src5_3091", "stop_lat": 17.39663, "stop_lon": 78.49606, "source": "src5" }, "geometry": { "type": "Point", "coordinates": [ 78.49606, 17.39663 ] } },
{ "type": "Feature", "properties": { "stop_name": "baghlingampally ambedkar college", "stop_id": "src5_3234", "stop_lat": 17.40078, "stop_lon": 78.49926, "source": "src5" }, "geometry": { "type": "Point", "coordinates": [ 78.49926, 17.40078 ] } },
{ "type": "Feature", "properties": { "stop_name": "baghlingampally ambedkar college", "stop_id": "src5_3235", "stop_lat": 17.40129, "stop_lon": 78.49944, "source": "src5" }, "geometry": { "type": "Point", "coordinates": [ 78.49944, 17.40129 ] } },
{ "type": "Feature", "properties": { "stop_name": "bahadur pally ramalayam", "stop_id": "src5_904", "stop_lat": 17.55983, "stop_lon": 78.43783, "source": "src5" }, "geometry": { "type": "Point", "coordinates": [ 78.43783, 17.55983 ] } },
{ "type": "Feature", "properties": { "stop_name": "bahadur pally ramalayam", "stop_id": "src5_905", "stop_lat": 17.55975, "stop_lon": 78.43783, "source": "src5" }, "geometry": { "type": "Point", "coordinates": [ 78.43783, 17.55975 ] } },
{ "type": "Feature", "properties": { "stop_name": "bahadurpally road", "stop_id": "src5_906", "stop_lat": 17.56035, "stop_lon": 78.43162, "source": "src5" }, "geometry": { "type": "Point", "coordinates": [ 78.43162, 17.56035 ] } },
{ "type": "Feature", "properties": { "stop_name": "bahadurpally x road", "stop_id": "src5_908", "stop_lat": 17.55991, "stop_lon": 78.43115, "source": "src5" }, "geometry": { "type": "Point", "coordinates": [ 78.43115, 17.55991 ] } },
{ "type": "Feature", "properties": { "stop_name": "bahadurpally x road", "stop_id": "src5_909", "stop_lat": 17.55997, "stop_lon": 78.43098, "source": "src5" }, "geometry": { "type": "Point", "coordinates": [ 78.43098, 17.55997 ] } },
{ "type": "Feature", "properties": { "stop_name": "bahadurpura", "stop_id": "src5_2484", "stop_lat": 17.35458, "stop_lon": 78.45413, "source": "src5" }, "geometry": { "type": "Point", "coordinates": [ 78.45413, 17.35458 ] } },
{ "type": "Feature", "properties": { "stop_name": "bahadurpura", "stop_id": "src5_2485", "stop_lat": 17.35568, "stop_lon": 78.45428, "source": "src5" }, "geometry": { "type": "Point", "coordinates": [ 78.45428, 17.35568 ] } },
{ "type": "Feature", "properties": { "stop_name": "bahadurpura", "stop_id": "src5_2681", "stop_lat": 17.35768, "stop_lon": 78.46183, "source": "src5" }, "geometry": { "type": "Point", "coordinates": [ 78.46183, 17.35768 ] } },
{ "type": "Feature", "properties": { "stop_name": "bahadurpura police station", "stop_id": "src5_2486", "stop_lat": 17.35915, "stop_lon": 78.455, "source": "src5" }, "geometry": { "type": "Point", "coordinates": [ 78.455, 17.35915 ] } },
{ "type": "Feature", "properties": { "stop_name": "bahadurpura police station", "stop_id": "src5_2488", "stop_lat": 17.35847, "stop_lon": 78.45515, "source": "src5" }, "geometry": { "type": "Point", "coordinates": [ 78.45515, 17.35847 ] } },
{ "type": "Feature", "properties": { "stop_name": "bairaguda bus stop", "stop_id": "src5_980", "stop_lat": 17.12262, "stop_lon": 78.49751, "source": "src5" }, "geometry": { "type": "Point", "coordinates": [ 78.49751, 17.12262 ] } },
{ "type": "Feature", "properties": { "stop_name": "bairamal guda bust stop", "stop_id": "src5_3802", "stop_lat": 17.34048, "stop_lon": 78.5482, "source": "src5" }, "geometry": { "type": "Point", "coordinates": [ 78.5482, 17.34048 ] } },
{ "type": "Feature", "properties": { "stop_name": "bairamalguda", "stop_id": "src5_3674", "stop_lat": 17.34297, "stop_lon": 78.54095, "source": "src5" }, "geometry": { "type": "Point", "coordinates": [ 78.54095, 17.34297 ] } },
{ "type": "Feature", "properties": { "stop_name": "bairamalguda", "stop_id": "src5_3675", "stop_lat": 17.34309, "stop_lon": 78.54111, "source": "src5" }, "geometry": { "type": "Point", "coordinates": [ 78.54111, 17.34309 ] } },
{ "type": "Feature", "properties": { "stop_name": "bala nagar", "stop_id": "src5_2464", "stop_lat": 17.46821, "stop_lon": 78.44614, "source": "src5" }, "geometry": { "type": "Point", "coordinates": [ 78.44614, 17.46821 ] } },
{ "type": "Feature", "properties": { "stop_name": "bala nagar", "stop_id": "src5_2466", "stop_lat": 17.46891, "stop_lon": 78.44658, "source": "src5" }, "geometry": { "type": "Point", "coordinates": [ 78.44658, 17.46891 ] } },
{ "type": "Feature", "properties": { "stop_name": "balaji hills colony - bus stop", "stop_id": "src5_3889", "stop_lat": 17.41485, "stop_lon": 78.57112, "source": "src5" }, "geometry": { "type": "Point", "coordinates": [ 78.57112, 17.41485 ] } },
{ "type": "Feature", "properties": { "stop_name": "balaji hills colony bus stop", "stop_id": "src5_3890", "stop_lat": 17.41504, "stop_lon": 78.57163, "source": "src5" }, "geometry": { "type": "Point", "coordinates": [ 78.57163, 17.41504 ] } },
{ "type": "Feature", "properties": { "stop_name": "balaji nagar", "stop_id": "src5_1532", "stop_lat": 17.51243, "stop_lon": 78.55876, "source": "src5" }, "geometry": { "type": "Point", "coordinates": [ 78.55876, 17.51243 ] } },
{ "type": "Feature", "properties": { "stop_name": "balaji nagar", "stop_id": "src5_1533", "stop_lat": 17.51255, "stop_lon": 78.5581, "source": "src5" }, "geometry": { "type": "Point", "coordinates": [ 78.5581, 17.51255 ] } },
{ "type": "Feature", "properties": { "stop_name": "balaji nagar", "stop_id": "src5_1738", "stop_lat": 17.4111, "stop_lon": 78.6458, "source": "src5" }, "geometry": { "type": "Point", "coordinates": [ 78.6458, 17.4111 ] } },
{ "type": "Feature", "properties": { "stop_name": "balaji nagar", "stop_id": "src5_1739", "stop_lat": 17.41118, "stop_lon": 78.64573, "source": "src5" }, "geometry": { "type": "Point", "coordinates": [ 78.64573, 17.41118 ] } },
{ "type": "Feature", "properties": { "stop_name": "balaji nagar bus stop|balaji nagar busstop", "stop_id": "src5_2162|src5_2163", "stop_lat": 17.48468, "stop_lon": 78.40643, "source": "src5" }, "geometry": { "type": "Point", "coordinates": [ 78.40643, 17.48468 ] } },
{ "type": "Feature", "properties": { "stop_name": "balaji nagar poultry farm", "stop_id": "src5_1535", "stop_lat": 17.51308, "stop_lon": 78.55448, "source": "src5" }, "geometry": { "type": "Point", "coordinates": [ 78.55448, 17.51308 ] } },
{ "type": "Feature", "properties": { "stop_name": "balaji nagar poultry farm", "stop_id": "src5_1536", "stop_lat": 17.51327, "stop_lon": 78.55432, "source": "src5" }, "geometry": { "type": "Point", "coordinates": [ 78.55432, 17.51327 ] } },
{ "type": "Feature", "properties": { "stop_name": "balaji rice mill bus stop", "stop_id": "src5_1222", "stop_lat": 17.51443, "stop_lon": 78.51315, "source": "src5" }, "geometry": { "type": "Point", "coordinates": [ 78.51315, 17.51443 ] } },
{ "type": "Feature", "properties": { "stop_name": "balakampet", "stop_id": "src5_2605", "stop_lat": 17.4462, "stop_lon": 78.44912, "source": "src5" }, "geometry": { "type": "Point", "coordinates": [ 78.44912, 17.4462 ] } },
{ "type": "Feature", "properties": { "stop_name": "balakampet", "stop_id": "src5_2606", "stop_lat": 17.44629, "stop_lon": 78.44896, "source": "src5" }, "geometry": { "type": "Point", "coordinates": [ 78.44896, 17.44629 ] } },
{ "type": "Feature", "properties": { "stop_name": "balamrai", "stop_id": "src5_3173", "stop_lat": 17.45042, "stop_lon": 78.4887, "source": "src5" }, "geometry": { "type": "Point", "coordinates": [ 78.4887, 17.45042 ] } },
{ "type": "Feature", "properties": { "stop_name": "balamrai", "stop_id": "src5_3174", "stop_lat": 17.45061, "stop_lon": 78.48858, "source": "src5" }, "geometry": { "type": "Point", "coordinates": [ 78.48858, 17.45061 ] } },
{ "type": "Feature", "properties": { "stop_name": "balanagar", "stop_id": "src5_2386", "stop_lat": 17.47077, "stop_lon": 78.43524, "source": "src5" }, "geometry": { "type": "Point", "coordinates": [ 78.43524, 17.47077 ] } },
{ "type": "Feature", "properties": { "stop_name": "balanagar", "stop_id": "src5_2467", "stop_lat": 17.46661, "stop_lon": 78.44676, "source": "src5" }, "geometry": { "type": "Point", "coordinates": [ 78.44676, 17.46661 ] } },
{ "type": "Feature", "properties": { "stop_name": "balanagar", "stop_id": "src5_2617", "stop_lat": 17.46357, "stop_lon": 78.45241, "source": "src5" }, "geometry": { "type": "Point", "coordinates": [ 78.45241, 17.46357 ] } },
{ "type": "Feature", "properties": { "stop_name": "balanagar", "stop_id": "src5_2621", "stop_lat": 17.46436, "stop_lon": 78.45149, "source": "src5" }, "geometry": { "type": "Point", "coordinates": [ 78.45149, 17.46436 ] } },
{ "type": "Feature", "properties": { "stop_name": "balanagar", "stop_id": "src5_2622", "stop_lat": 17.46481, "stop_lon": 78.44898, "source": "src5" }, "geometry": { "type": "Point", "coordinates": [ 78.44898, 17.46481 ] } },
{ "type": "Feature", "properties": { "stop_name": "balanagar bus stop", "stop_id": "src5_2461", "stop_lat": 17.46744, "stop_lon": 78.44455, "source": "src5" }, "geometry": { "type": "Point", "coordinates": [ 78.44455, 17.46744 ] } },
{ "type": "Feature", "properties": { "stop_name": "balanagar pickup", "stop_id": "src5_2465", "stop_lat": 17.46789, "stop_lon": 78.44619, "source": "src5" }, "geometry": { "type": "Point", "coordinates": [ 78.44619, 17.46789 ] } },
{ "type": "Feature", "properties": { "stop_name": "balanagar x roads \/ citd", "stop_id": "src5_2463", "stop_lat": 17.46746, "stop_lon": 78.44509, "source": "src5" }, "geometry": { "type": "Point", "coordinates": [ 78.44509, 17.46746 ] } },
{ "type": "Feature", "properties": { "stop_name": "balanagar x roads \/ citd.all.shops.", "stop_id": "src5_2462", "stop_lat": 17.46741, "stop_lon": 78.44462, "source": "src5" }, "geometry": { "type": "Point", "coordinates": [ 78.44462, 17.46741 ] } },
{ "type": "Feature", "properties": { "stop_name": "balanagar-shobana theatre", "stop_id": "src5_2618", "stop_lat": 17.46361, "stop_lon": 78.45267, "source": "src5" }, "geometry": { "type": "Point", "coordinates": [ 78.45267, 17.46361 ] } },
{ "type": "Feature", "properties": { "stop_name": "balanagar-shobana theatre", "stop_id": "src5_2620", "stop_lat": 17.46379, "stop_lon": 78.45305, "source": "src5" }, "geometry": { "type": "Point", "coordinates": [ 78.45305, 17.46379 ] } },
{ "type": "Feature", "properties": { "stop_name": "balapur", "stop_id": "src5_1003", "stop_lat": 17.31351, "stop_lon": 78.49882, "source": "src5" }, "geometry": { "type": "Point", "coordinates": [ 78.49882, 17.31351 ] } },
{ "type": "Feature", "properties": { "stop_name": "balapur", "stop_id": "src5_1004", "stop_lat": 17.31337, "stop_lon": 78.49858, "source": "src5" }, "geometry": { "type": "Point", "coordinates": [ 78.49858, 17.31337 ] } },
{ "type": "Feature", "properties": { "stop_name": "balapur x road", "stop_id": "src5_1050", "stop_lat": 17.31936, "stop_lon": 78.51901, "source": "src5" }, "geometry": { "type": "Point", "coordinates": [ 78.51901, 17.31936 ] } },
{ "type": "Feature", "properties": { "stop_name": "balapur x road", "stop_id": "src5_1051", "stop_lat": 17.31874, "stop_lon": 78.51907, "source": "src5" }, "geometry": { "type": "Point", "coordinates": [ 78.51907, 17.31874 ] } },
{ "type": "Feature", "properties": { "stop_name": "balapur x road", "stop_id": "src5_1056", "stop_lat": 17.31896, "stop_lon": 78.51981, "source": "src5" }, "geometry": { "type": "Point", "coordinates": [ 78.51981, 17.31896 ] } },
{ "type": "Feature", "properties": { "stop_name": "balayya hotel", "stop_id": "src5_868", "stop_lat": 17.51401, "stop_lon": 78.44189, "source": "src5" }, "geometry": { "type": "Point", "coordinates": [ 78.44189, 17.51401 ] } },
{ "type": "Feature", "properties": { "stop_name": "balayya hotel", "stop_id": "src5_869", "stop_lat": 17.51406, "stop_lon": 78.44201, "source": "src5" }, "geometry": { "type": "Point", "coordinates": [ 78.44201, 17.51406 ] } },
{ "type": "Feature", "properties": { "stop_name": "bandam bus stop", "stop_id": "src5_30", "stop_lat": 17.48913, "stop_lon": 78.72322, "source": "src5" }, "geometry": { "type": "Point", "coordinates": [ 78.72322, 17.48913 ] } },
{ "type": "Feature", "properties": { "stop_name": "bandathimmapur bus stop", "stop_id": "src5_1317", "stop_lat": 17.71799, "stop_lon": 78.51995, "source": "src5" }, "geometry": { "type": "Point", "coordinates": [ 78.51995, 17.71799 ] } },
{ "type": "Feature", "properties": { "stop_name": "bandlaguda", "stop_id": "src5_1433", "stop_lat": 17.37148, "stop_lon": 78.56941, "source": "src5" }, "geometry": { "type": "Point", "coordinates": [ 78.56941, 17.37148 ] } },
{ "type": "Feature", "properties": { "stop_name": "bandlaguda", "stop_id": "src5_1434", "stop_lat": 17.37146, "stop_lon": 78.56956, "source": "src5" }, "geometry": { "type": "Point", "coordinates": [ 78.56956, 17.37146 ] } },
{ "type": "Feature", "properties": { "stop_name": "bandlaguda", "stop_id": "src5_1825", "stop_lat": 17.50126, "stop_lon": 78.62193, "source": "src5" }, "geometry": { "type": "Point", "coordinates": [ 78.62193, 17.50126 ] } },
{ "type": "Feature", "properties": { "stop_name": "bandlaguda", "stop_id": "src5_1826", "stop_lat": 17.50093, "stop_lon": 78.62129, "source": "src5" }, "geometry": { "type": "Point", "coordinates": [ 78.62129, 17.50093 ] } },
{ "type": "Feature", "properties": { "stop_name": "bandlaguda", "stop_id": "src5_2657", "stop_lat": 17.31657, "stop_lon": 78.46615, "source": "src5" }, "geometry": { "type": "Point", "coordinates": [ 78.46615, 17.31657 ] } },
{ "type": "Feature", "properties": { "stop_name": "bandlaguda", "stop_id": "src5_2658", "stop_lat": 17.31659, "stop_lon": 78.46649, "source": "src5" }, "geometry": { "type": "Point", "coordinates": [ 78.46649, 17.31659 ] } },
{ "type": "Feature", "properties": { "stop_name": "bandlaguda", "stop_id": "src5_2661", "stop_lat": 17.32225, "stop_lon": 78.46843, "source": "src5" }, "geometry": { "type": "Point", "coordinates": [ 78.46843, 17.32225 ] } },
{ "type": "Feature", "properties": { "stop_name": "bandlaguda \/ hashamabad", "stop_id": "src5_2662", "stop_lat": 17.32212, "stop_lon": 78.46868, "source": "src5" }, "geometry": { "type": "Point", "coordinates": [ 78.46868, 17.32212 ] } },
{ "type": "Feature", "properties": { "stop_name": "bandlaguda bus deport", "stop_id": "src5_3973", "stop_lat": 17.36533, "stop_lon": 78.58897, "source": "src5" }, "geometry": { "type": "Point", "coordinates": [ 78.58897, 17.36533 ] } },
{ "type": "Feature", "properties": { "stop_name": "bandlaguda bus depot", "stop_id": "src5_1769", "stop_lat": 17.36523, "stop_lon": 78.58928, "source": "src5" }, "geometry": { "type": "Point", "coordinates": [ 78.58928, 17.36523 ] } },
{ "type": "Feature", "properties": { "stop_name": "bandlaguda bus depot", "stop_id": "src5_1770", "stop_lat": 17.36524, "stop_lon": 78.58903, "source": "src5" }, "geometry": { "type": "Point", "coordinates": [ 78.58903, 17.36524 ] } },
{ "type": "Feature", "properties": { "stop_name": "bandlaguda jagir village bus stop", "stop_id": "src5_410", "stop_lat": 17.3512, "stop_lon": 78.38999, "source": "src5" }, "geometry": { "type": "Point", "coordinates": [ 78.38999, 17.3512 ] } },
{ "type": "Feature", "properties": { "stop_name": "bandlaguda x road", "stop_id": "src5_429", "stop_lat": 17.3593, "stop_lon": 78.38765, "source": "src5" }, "geometry": { "type": "Point", "coordinates": [ 78.38765, 17.3593 ] } },
{ "type": "Feature", "properties": { "stop_name": "bandlaguda x road", "stop_id": "src5_458", "stop_lat": 17.35976, "stop_lon": 78.38801, "source": "src5" }, "geometry": { "type": "Point", "coordinates": [ 78.38801, 17.35976 ] } },
{ "type": "Feature", "properties": { "stop_name": "bandlaguda x road", "stop_id": "src5_459", "stop_lat": 17.35954, "stop_lon": 78.38799, "source": "src5" }, "geometry": { "type": "Point", "coordinates": [ 78.38799, 17.35954 ] } },
{ "type": "Feature", "properties": { "stop_name": "banjara hills", "stop_id": "src5_2224", "stop_lat": 17.41623, "stop_lon": 78.41897, "source": "src5" }, "geometry": { "type": "Point", "coordinates": [ 78.41897, 17.41623 ] } },
{ "type": "Feature", "properties": { "stop_name": "banjara hills", "stop_id": "src5_2230", "stop_lat": 17.41612, "stop_lon": 78.42005, "source": "src5" }, "geometry": { "type": "Point", "coordinates": [ 78.42005, 17.41612 ] } },
{ "type": "Feature", "properties": { "stop_name": "banjara hills bus stop", "stop_id": "src5_2430", "stop_lat": 17.42712, "stop_lon": 78.44473, "source": "src5" }, "geometry": { "type": "Point", "coordinates": [ 78.44473, 17.42712 ] } },
{ "type": "Feature", "properties": { "stop_name": "banjara hills kaman", "stop_id": "src5_2414", "stop_lat": 17.40942, "stop_lon": 78.43793, "source": "src5" }, "geometry": { "type": "Point", "coordinates": [ 78.43793, 17.40942 ] } },
{ "type": "Feature", "properties": { "stop_name": "banjara hills kaman", "stop_id": "src5_2415", "stop_lat": 17.40997, "stop_lon": 78.43774, "source": "src5" }, "geometry": { "type": "Point", "coordinates": [ 78.43774, 17.40997 ] } },
{ "type": "Feature", "properties": { "stop_name": "banjara hills kaman road number 12", "stop_id": "src5_2411", "stop_lat": 17.40841, "stop_lon": 78.43857, "source": "src5" }, "geometry": { "type": "Point", "coordinates": [ 78.43857, 17.40841 ] } },
{ "type": "Feature", "properties": { "stop_name": "banjara hills road no 7 \/ taj krishna", "stop_id": "src5_2544", "stop_lat": 17.41648, "stop_lon": 78.44902, "source": "src5" }, "geometry": { "type": "Point", "coordinates": [ 78.44902, 17.41648 ] } },
{ "type": "Feature", "properties": { "stop_name": "banjara hills road no 7 \/ taj krishna", "stop_id": "src5_2545", "stop_lat": 17.41641, "stop_lon": 78.44875, "source": "src5" }, "geometry": { "type": "Point", "coordinates": [ 78.44875, 17.41641 ] } },
{ "type": "Feature", "properties": { "stop_name": "banjara hills road number 2 brand factory", "stop_id": "src5_2422", "stop_lat": 17.42545, "stop_lon": 78.43553, "source": "src5" }, "geometry": { "type": "Point", "coordinates": [ 78.43553, 17.42545 ] } },
{ "type": "Feature", "properties": { "stop_name": "banjara hills road number 2 brand factory", "stop_id": "src5_2423", "stop_lat": 17.42582, "stop_lon": 78.43587, "source": "src5" }, "geometry": { "type": "Point", "coordinates": [ 78.43587, 17.42582 ] } },
{ "type": "Feature", "properties": { "stop_name": "bank street bus stop", "stop_id": "src5_2904", "stop_lat": 17.38549, "stop_lon": 78.48165, "source": "src5" }, "geometry": { "type": "Point", "coordinates": [ 78.48165, 17.38549 ] } },
{ "type": "Feature", "properties": { "stop_name": "baphugahat busstop", "stop_id": "src5_2205", "stop_lat": 17.37466, "stop_lon": 78.4187, "source": "src5" },