{
"type": "FeatureCollection",
"name": "Hyderabad_MMTS_stops",
"crs": { "type": "name", "properties": { "name": "urn:ogc:def:crs:OGC:1.3:CRS84" } },
"features": [
{ "type": "Feature", "properties": { "S.No.": 1, "Station Name": "Arts College", "Lat": 17.41808, "Long": 78.519292 }, "geometry": { "type": "Point", "coordinates": [ 78.519292, 17.41808 ] } },
{ "type": "Feature", "properties": { "S.No.": 2, "Station Name": "Begumpet", "Lat": 17.438913, "Long": 78.458278 }, "geometry": { "type": "Point", "coordinates": [ 78.458278, 17.438913 ] } },
{ "type": "Feature", "properties": { "S.No.": 3, "Station Name": "Bharatnagar", "Lat": 17.462441, "Long": 78.429409 }, "geometry": { "type": "Point", "coordinates": [ 78.429409, 17.462441 ] } },
{ "type": "Feature", "properties": { "S.No.": 4, "Station Name": "Borabanda", "Lat": 17.45945, "Long": 78.407864 }, "geometry": { "type": "Point", "coordinates": [ 78.407864, 17.45945 ] } },
{ "type": "Feature", "properties": { "S.No.": 5, "Station Name": "Budvel", "Lat": 17.311252, "Long": 78.423094 }, "geometry": { "type": "Point", "coordinates": [ 78.423094, 17.311252 ] } },
{ "type": "Feature", "properties": { "S.No.": 6, "Station Name": "Chandanagar", "Lat": 17.487582, "Long": 78.33268 }, "geometry": { "type": "Point", "coordinates": [ 78.33268, 17.487582 ] } },
{ "type": "Feature", "properties": { "S.No.": 7, "Station Name": "Dabirpura", "Lat": 17.366787, "Long": 78.490456 }, "geometry": { "type": "Point", "coordinates": [ 78.490456, 17.366787 ] } },
{ "type": "Feature", "properties": { "S.No.": 8, "Station Name": "Falaknuma", "Lat": 17.328298, "Long": 78.474347 }, "geometry": { "type": "Point", "coordinates": [ 78.474347, 17.328298 ] } },
{ "type": "Feature", "properties": { "S.No.": 9, "Station Name": "Fatehnagar", "Lat": 17.456086, "Long": 78.450266 }, "geometry": { "type": "Point", "coordinates": [ 78.450266, 17.456086 ] } },
{ "type": "Feature", "properties": { "S.No.": 10, "Station Name": "Hafeezpet", "Lat": 17.483031, "Long": 78.363021 }, "geometry": { "type": "Point", "coordinates": [ 78.363021, 17.483031 ] } },
{ "type": "Feature", "properties": { "S.No.": 11, "Station Name": "Hitech City", "Lat": 17.469992, "Long": 78.385318 }, "geometry": { "type": "Point", "coordinates": [ 78.385318, 17.469992 ] } },
{ "type": "Feature", "properties": { "S.No.": 12, "Station Name": "Huppuguda", "Lat": 17.341555, "Long": 78.48249 }, "geometry": { "type": "Point", "coordinates": [ 78.48249, 17.341555 ] } },
{ "type": "Feature", "properties": { "S.No.": 13, "Station Name": "Hyderabad", "Lat": 17.392741, "Long": 78.467579 }, "geometry": { "type": "Point", "coordinates": [ 78.467579, 17.392741 ] } },
{ "type": "Feature", "properties": { "S.No.": 14, "Station Name": "Jamai Osmania", "Lat": 17.411729, "Long": 78.518317 }, "geometry": { "type": "Point", "coordinates": [ 78.518317, 17.411729 ] } },
{ "type": "Feature", "properties": { "S.No.": 15, "Station Name": "James Street", "Lat": 17.433109, "Long": 78.487273 }, "geometry": { "type": "Point", "coordinates": [ 78.487273, 17.433109 ] } },
{ "type": "Feature", "properties": { "S.No.": 16, "Station Name": "Kacheguda", "Lat": 17.389513, "Long": 78.499261 }, "geometry": { "type": "Point", "coordinates": [ 78.499261, 17.389513 ] } },
{ "type": "Feature", "properties": { "S.No.": 17, "Station Name": "Khairatabad", "Lat": 17.412629, "Long": 78.46053 }, "geometry": { "type": "Point", "coordinates": [ 78.46053, 17.412629 ] } },
{ "type": "Feature", "properties": { "S.No.": 18, "Station Name": "Lakdikapul", "Lat": 17.404235, "Long": 78.463355 }, "geometry": { "type": "Point", "coordinates": [ 78.463355, 17.404235 ] } },
{ "type": "Feature", "properties": { "S.No.": 19, "Station Name": "Lallaguda Gate", "Lat": 17.441018, "Long": 78.524504 }, "geometry": { "type": "Point", "coordinates": [ 78.524504, 17.441018 ] } },
{ "type": "Feature", "properties": { "S.No.": 20, "Station Name": "Lingampally", "Lat": 17.483298, "Long": 78.317798 }, "geometry": { "type": "Point", "coordinates": [ 78.317798, 17.483298 ] } },
{ "type": "Feature", "properties": { "S.No.": 21, "Station Name": "Malakpet", "Lat": 17.37648, "Long": 78.494782 }, "geometry": { "type": "Point", "coordinates": [ 78.494782, 17.37648 ] } },
{ "type": "Feature", "properties": { "S.No.": 22, "Station Name": "Malkajgiri", "Lat": 17.455953, "Long": 78.530237 }, "geometry": { "type": "Point", "coordinates": [ 78.530237, 17.455953 ] } },
{ "type": "Feature", "properties": { "S.No.": 23, "Station Name": "NatureCureHospital", "Lat": 17.445949, "Long": 78.452214 }, "geometry": { "type": "Point", "coordinates": [ 78.452214, 17.445949 ] } },
{ "type": "Feature", "properties": { "S.No.": 24, "Station Name": "Necklace Road", "Lat": 17.424711, "Long": 78.462816 }, "geometry": { "type": "Point", "coordinates": [ 78.462816, 17.424711 ] } },
{ "type": "Feature", "properties": { "S.No.": 25, "Station Name": "NPA Shivrampalli ", "Lat": 17.323699, "Long": 78.437111 }, "geometry": { "type": "Point", "coordinates": [ 78.437111, 17.323699 ] } },
{ "type": "Feature", "properties": { "S.No.": 26, "Station Name": "SanjeevaiahPark", "Lat": 17.435708, "Long": 78.476721 }, "geometry": { "type": "Point", "coordinates": [ 78.476721, 17.435708 ] } },
{ "type": "Feature", "properties": { "S.No.": 27, "Station Name": "Secunderabad", "Lat": 17.434006, "Long": 78.501655 }, "geometry": { "type": "Point", "coordinates": [ 78.501655, 17.434006 ] } },
{ "type": "Feature", "properties": { "S.No.": 28, "Station Name": "Sitafalmandi", "Lat": 17.429461, "Long": 78.519625 }, "geometry": { "type": "Point", "coordinates": [ 78.519625, 17.429461 ] } },
{ "type": "Feature", "properties": { "S.No.": 29, "Station Name": "Umdanagar", "Lat": 17.263602, "Long": 78.393105 }, "geometry": { "type": "Point", "coordinates": [ 78.393105, 17.263602 ] } },
{ "type": "Feature", "properties": { "S.No.": 30, "Station Name": "Vidyanagar", "Lat": 17.402485, "Long": 78.511161 }, "geometry": { "type": "Point", "coordinates": [ 78.511161, 17.402485 ] } },
{ "type": "Feature", "properties": { "S.No.": 31, "Station Name": "Yakutpura", "Lat": 17.36032, "Long": 78.492113 }, "geometry": { "type": "Point", "coordinates": [ 78.492113, 17.36032 ] } }
]
}
