{
"type": "FeatureCollection",
"crs": { "type": "name", "properties": { "name": "urn:ogc:def:crs:OGC:1.3:CRS84" } },
"features": [
{ "type": "Feature", "properties": { "Zone": "East", "Circle": "1", "Location": "Shalivahana", "No. of Plants Planted": 232, "No. of Plants Survived": 215, "Latitude": 17.3747517, "Longitude": 78.5209331 }, "geometry": { "type": "Point", "coordinates": [ 78.5209331, 17.3747517 ] } },
{ "type": "Feature", "properties": { "Zone": "East", "Circle": "1", "Location": "Gopal Reddy Nagar(Left Side)", "No. of Plants Planted": 118, "No. of Plants Survived": 110, "Latitude": 17.4757964, "Longitude": 78.3619756 }, "geometry": { "type": "Point", "coordinates": [ 78.3619756, 17.4757964 ] } },
{ "type": "Feature", "properties": { "Zone": "East", "Circle": "1", "Location": "Gopal Reddy Nagar(Right Side)", "No. of Plants Planted": 270, "No. of Plants Survived": 245, "Latitude": 17.4757964, "Longitude": 78.3619756 }, "geometry": { "type": "Point", "coordinates": [ 78.3619756, 17.4757964 ] } },
{ "type": "Feature", "properties": { "Zone": "East", "Circle": "1", "Location": "Bank Colony (Play Ground)", "No. of Plants Planted": 49, "No. of Plants Survived": 44, "Latitude": 17.3606954, "Longitude": 78.4930155 }, "geometry": { "type": "Point", "coordinates": [ 78.4930155, 17.3606954 ] } },
{ "type": "Feature", "properties": { "Zone": "East", "Circle": "1", "Location": "Yella Reddy guda", "No. of Plants Planted": 230, "No. of Plants Survived": 210, "Latitude": 17.4327345, "Longitude": 78.4425108 }, "geometry": { "type": "Point", "coordinates": [ 78.4425108, 17.4327345 ] } },
{ "type": "Feature", "properties": { "Zone": "East", "Circle": "1", "Location": "Ashok Colony -I", "No. of Plants Planted": 198, "No. of Plants Survived": 161, "Latitude": 17.4549647, "Longitude": 78.448553 }, "geometry": { "type": "Point", "coordinates": [ 78.448553, 17.4549647 ] } },
{ "type": "Feature", "properties": { "Zone": "East", "Circle": "1", "Location": "Ashok Colony -II", "No. of Plants Planted": 183, "No. of Plants Survived": 0, "Latitude": 17.4549647, "Longitude": 78.448553 }, "geometry": { "type": "Point", "coordinates": [ 78.448553, 17.4549647 ] } },
{ "type": "Feature", "properties": { "Zone": "East", "Circle": "1", "Location": "Ashok Colony -III", "No. of Plants Planted": 240, "No. of Plants Survived": 115, "Latitude": 17.4549647, "Longitude": 78.448553 }, "geometry": { "type": "Point", "coordinates": [ 78.448553, 17.4549647 ] } },
{ "type": "Feature", "properties": { "Zone": "East", "Circle": "1", "Location": "Kandhiguda", "No. of Plants Planted": 126, "No. of Plants Survived": 86, "Latitude": 17.3896726, "Longitude": 78.4960144 }, "geometry": { "type": "Point", "coordinates": [ 78.4960144, 17.3896726 ] } },
{ "type": "Feature", "properties": { "Zone": "East", "Circle": "1", "Location": "Kandhiguda (OUT Colony)", "No. of Plants Planted": 156, "No. of Plants Survived": 106, "Latitude": 17.4918908, "Longitude": 78.5454999 }, "geometry": { "type": "Point", "coordinates": [ 78.5454999, 17.4918908 ] } },
{ "type": "Feature", "properties": { "Zone": "East", "Circle": "1", "Location": "Kandhiguda -1", "No. of Plants Planted": 123, "No. of Plants Survived": 0, "Latitude": 17.4949827, "Longitude": 78.5423052 }, "geometry": { "type": "Point", "coordinates": [ 78.5423052, 17.4949827 ] } },
{ "type": "Feature", "properties": { "Zone": "East", "Circle": "1", "Location": "Kandhiguda -2", "No. of Plants Planted": 150, "No. of Plants Survived": 0, "Latitude": 17.4949827, "Longitude": 78.5423052 }, "geometry": { "type": "Point", "coordinates": [ 78.5423052, 17.4949827 ] } },
{ "type": "Feature", "properties": { "Zone": "East", "Circle": "1", "Location": "Green Park Enclave-I", "No. of Plants Planted": 36, "No. of Plants Survived": 24, "Latitude": 17.4915606, "Longitude": 78.5586324 }, "geometry": { "type": "Point", "coordinates": [ 78.5586324, 17.4915606 ] } },
{ "type": "Feature", "properties": { "Zone": "East", "Circle": "1", "Location": "Green Park Enclave-II", "No. of Plants Planted": 189, "No. of Plants Survived": 117, "Latitude": 17.436432, "Longitude": 78.4536628 }, "geometry": { "type": "Point", "coordinates": [ 78.4536628, 17.436432 ] } },
{ "type": "Feature", "properties": { "Zone": "East", "Circle": "1", "Location": "Saketh Phase-I - 1", "No. of Plants Planted": 56, "No. of Plants Survived": 51, "Latitude": 17.3321902, "Longitude": 78.5727469 }, "geometry": { "type": "Point", "coordinates": [ 78.5727469, 17.3321902 ] } },
{ "type": "Feature", "properties": { "Zone": "East", "Circle": "1", "Location": "Saketh Phase-I - 2", "No. of Plants Planted": 140, "No. of Plants Survived": 90, "Latitude": 17.332303, "Longitude": 78.570448 }, "geometry": { "type": "Point", "coordinates": [ 78.570448, 17.332303 ] } },
{ "type": "Feature", "properties": { "Zone": "East", "Circle": "1", "Location": "Saketh Phase-II", "No. of Plants Planted": 163, "No. of Plants Survived": 152, "Latitude": 17.385044, "Longitude": 78.486671 }, "geometry": { "type": "Point", "coordinates": [ 78.486671, 17.385044 ] } },
{ "type": "Feature", "properties": { "Zone": "East", "Circle": "1", "Location": "C.S.Nagar (Chatrapathi Shivaji)", "No. of Plants Planted": 70, "No. of Plants Survived": 70, "Latitude": 17.385044, "Longitude": 78.486671 }, "geometry": { "type": "Point", "coordinates": [ 78.486671, 17.385044 ] } },
{ "type": "Feature", "properties": { "Zone": "East", "Circle": "1", "Location": "Bank Colony (Right Side)", "No. of Plants Planted": 36, "No. of Plants Survived": 33, "Latitude": 17.4979587, "Longitude": 78.4684454 }, "geometry": { "type": "Point", "coordinates": [ 78.4684454, 17.4979587 ] } },
{ "type": "Feature", "properties": { "Zone": "East", "Circle": "1", "Location": "Dhobighat Yellaredy guda", "No. of Plants Planted": 69, "No. of Plants Survived": 62, "Latitude": 17.3559996, "Longitude": 78.4872706 }, "geometry": { "type": "Point", "coordinates": [ 78.4872706, 17.3559996 ] } },
{ "type": "Feature", "properties": { "Zone": "East", "Circle": "1", "Location": "Vampuguda (Temple Area)", "No. of Plants Planted": 182, "No. of Plants Survived": 82, "Latitude": 17.3587171, "Longitude": 78.2987391 }, "geometry": { "type": "Point", "coordinates": [ 78.2987391, 17.3587171 ] } },
{ "type": "Feature", "properties": { "Zone": "East", "Circle": "1", "Location": "Maruthi Enclave-1", "No. of Plants Planted": 190, "No. of Plants Survived": 170, "Latitude": 17.348, "Longitude": 78.508584 }, "geometry": { "type": "Point", "coordinates": [ 78.508584, 17.348 ] } },
{ "type": "Feature", "properties": { "Zone": "East", "Circle": "1", "Location": "Maruthi Enclave-2", "No. of Plants Planted": 140, "No. of Plants Survived": 115, "Latitude": 17.348, "Longitude": 78.508584 }, "geometry": { "type": "Point", "coordinates": [ 78.508584, 17.348 ] } },
{ "type": "Feature", "properties": { "Zone": "East", "Circle": "1", "Location": "Maruthi Enclave-3", "No. of Plants Planted": 95, "No. of Plants Survived": 89, "Latitude": 17.343172, "Longitude": 78.526488 }, "geometry": { "type": "Point", "coordinates": [ 78.526488, 17.343172 ] } },
{ "type": "Feature", "properties": { "Zone": "East", "Circle": "1", "Location": "E.C.Nagar(Cherlapally)", "No. of Plants Planted": 320, "No. of Plants Survived": 210, "Latitude": 17.459284, "Longitude": 78.5987291 }, "geometry": { "type": "Point", "coordinates": [ 78.5987291, 17.459284 ] } },
{ "type": "Feature", "properties": { "Zone": "East", "Circle": "1", "Location": "Shakthi Sai Nagar", "No. of Plants Planted": 310, "No. of Plants Survived": 289, "Latitude": 17.4425806, "Longitude": 78.5806343 }, "geometry": { "type": "Point", "coordinates": [ 78.5806343, 17.4425806 ] } },
{ "type": "Feature", "properties": { "Zone": "East", "Circle": "1", "Location": "Yerrakunta Community Hall", "No. of Plants Planted": 50, "No. of Plants Survived": 0, "Latitude": 17.3528599, "Longitude": 78.5072936 }, "geometry": { "type": "Point", "coordinates": [ 78.5072936, 17.3528599 ] } },
{ "type": "Feature", "properties": { "Zone": "East", "Circle": "1", "Location": "Meerpet Temple Area", "No. of Plants Planted": 40, "No. of Plants Survived": 30, "Latitude": 17.3160588, "Longitude": 78.5251585 }, "geometry": { "type": "Point", "coordinates": [ 78.5251585, 17.3160588 ] } },
{ "type": "Feature", "properties": { "Zone": "East", "Circle": "1", "Location": "Bank Colony (Left Side)", "No. of Plants Planted": 55, "No. of Plants Survived": 51, "Latitude": 17.349135, "Longitude": 78.5534309 }, "geometry": { "type": "Point", "coordinates": [ 78.5534309, 17.349135 ] } },
{ "type": "Feature", "properties": { "Zone": "East", "Circle": "1", "Location": "Homiji Baba Function Hall", "No. of Plants Planted": 370, "No. of Plants Survived": 257, "Latitude": 17.4743186, "Longitude": 78.5593995 }, "geometry": { "type": "Point", "coordinates": [ 78.5593995, 17.4743186 ] } },
{ "type": "Feature", "properties": { "Zone": "East", "Circle": "1", "Location": "Zindathilasmath Area", "No. of Plants Planted": 60, "No. of Plants Survived": 12, "Latitude": 17.386839, "Longitude": 78.5126002 }, "geometry": { "type": "Point", "coordinates": [ 78.5126002, 17.386839 ] } },
{ "type": "Feature", "properties": { "Zone": "East", "Circle": "1", "Location": "AS.Rao Play Ground", "No. of Plants Planted": 80, "No. of Plants Survived": 0, "Latitude": 17.4815544, "Longitude": 78.5554866 }, "geometry": { "type": "Point", "coordinates": [ 78.5554866, 17.4815544 ] } },
{ "type": "Feature", "properties": { "Zone": "East", "Circle": "1", "Location": "Srinivasa Nagar (Hi-Tension Line )", "No. of Plants Planted": 45, "No. of Plants Survived": 42, "Latitude": 17.499304, "Longitude": 78.3934846 }, "geometry": { "type": "Point", "coordinates": [ 78.3934846, 17.499304 ] } },
{ "type": "Feature", "properties": { "Zone": "East", "Circle": "1", "Location": "Srinivasa Nagar (Open Space)", "No. of Plants Planted": 8, "No. of Plants Survived": 6, "Latitude": 17.4387245, "Longitude": 78.4453532 }, "geometry": { "type": "Point", "coordinates": [ 78.4453532, 17.4387245 ] } },
{ "type": "Feature", "properties": { "Zone": "East", "Circle": "1", "Location": "Subramanyam Nagar (Madda Laxmamma)", "No. of Plants Planted": 130, "No. of Plants Survived": 64, "Latitude": 17.360116, "Longitude": 78.516879 }, "geometry": { "type": "Point", "coordinates": [ 78.516879, 17.360116 ] } },
{ "type": "Feature", "properties": { "Zone": "East", "Circle": "1", "Location": "Vaishnavi Big Ground", "No. of Plants Planted": 350, "No. of Plants Survived": 240, "Latitude": 17.3895869, "Longitude": 78.4954495 }, "geometry": { "type": "Point", "coordinates": [ 78.4954495, 17.3895869 ] } },
{ "type": "Feature", "properties": { "Zone": "East", "Circle": "1", "Location": "Vasavi Enclave-I (Tank Area)", "No. of Plants Planted": 233, "No. of Plants Survived": 128, "Latitude": 17.5200831, "Longitude": 78.3986073 }, "geometry": { "type": "Point", "coordinates": [ 78.3986073, 17.5200831 ] } },
{ "type": "Feature", "properties": { "Zone": "East", "Circle": "1", "Location": "Vasavi Enclave-II (Near Water Tank)", "No. of Plants Planted": 63, "No. of Plants Survived": 57, "Latitude": 17.5200831, "Longitude": 78.3986073 }, "geometry": { "type": "Point", "coordinates": [ 78.3986073, 17.5200831 ] } },
{ "type": "Feature", "properties": { "Zone": "East", "Circle": "1", "Location": "Vasavi Shiva Nagar , Beside Plot no:204 , Vasavi Shiva Nagar", "No. of Plants Planted": 143, "No. of Plants Survived": 110, "Latitude": 17.4898251, "Longitude": 78.585247 }, "geometry": { "type": "Point", "coordinates": [ 78.585247, 17.4898251 ] } },
{ "type": "Feature", "properties": { "Zone": "East", "Circle": "1", "Location": "Vasavi Shiva Nagar(Ficus Tree)", "No. of Plants Planted": 38, "No. of Plants Survived": 21, "Latitude": 17.4127652, "Longitude": 78.4597642 }, "geometry": { "type": "Point", "coordinates": [ 78.4597642, 17.4127652 ] } },
{ "type": "Feature", "properties": { "Zone": "East", "Circle": "1", "Location": "Cherlapally", "No. of Plants Planted": 263, "No. of Plants Survived": 247, "Latitude": 17.4681116, "Longitude": 78.5973645 }, "geometry": { "type": "Point", "coordinates": [ 78.5973645, 17.4681116 ] } },
{ "type": "Feature", "properties": { "Zone": "East", "Circle": "1", "Location": "Banda Bavi", "No. of Plants Planted": 223, "No. of Plants Survived": 202, "Latitude": 17.385044, "Longitude": 78.486671 }, "geometry": { "type": "Point", "coordinates": [ 78.486671, 17.385044 ] } },
{ "type": "Feature", "properties": { "Zone": "East", "Circle": "1", "Location": "Shivalayam , Mallapur", "No. of Plants Planted": 115, "No. of Plants Survived": 105, "Latitude": 17.4420826, "Longitude": 78.5755184 }, "geometry": { "type": "Point", "coordinates": [ 78.5755184, 17.4420826 ] } },
{ "type": "Feature", "properties": { "Zone": "East", "Circle": "1", "Location": "Muslim Hostel", "No. of Plants Planted": 61, "No. of Plants Survived": 22, "Latitude": 17.3982742, "Longitude": 78.4568208 }, "geometry": { "type": "Point", "coordinates": [ 78.4568208, 17.3982742 ] } },
{ "type": "Feature", "properties": { "Zone": "East", "Circle": "1", "Location": "Dumping Yard Sanjevaiah Nursery", "No. of Plants Planted": 60, "No. of Plants Survived": 16, "Latitude": 17.3778688, "Longitude": 78.4939322 }, "geometry": { "type": "Point", "coordinates": [ 78.4939322, 17.3778688 ] } },
{ "type": "Feature", "properties": { "Zone": "East", "Circle": "1", "Location": "Community Hall ( Near Mallapur Dobighat)", "No. of Plants Planted": 58, "No. of Plants Survived": 50, "Latitude": 17.3528599, "Longitude": 78.5072936 }, "geometry": { "type": "Point", "coordinates": [ 78.5072936, 17.3528599 ] } },
{ "type": "Feature", "properties": { "Zone": "East", "Circle": "1", "Location": "Venkata Ramana Colony (Tank)", "No. of Plants Planted": 168, "No. of Plants Survived": 152, "Latitude": 17.4820801, "Longitude": 78.3778232 }, "geometry": { "type": "Point", "coordinates": [ 78.3778232, 17.4820801 ] } },
{ "type": "Feature", "properties": { "Zone": "East", "Circle": "1", "Location": "Venkata Ramana Colony", "No. of Plants Planted": 172, "No. of Plants Survived": 100, "Latitude": 17.4820801, "Longitude": 78.3778232 }, "geometry": { "type": "Point", "coordinates": [ 78.3778232, 17.4820801 ] } },
{ "type": "Feature", "properties": { "Zone": "East", "Circle": "1", "Location": "Dhobighta Mallapur", "No. of Plants Planted": 129, "No. of Plants Survived": 110, "Latitude": 17.3559996, "Longitude": 78.4872706 }, "geometry": { "type": "Point", "coordinates": [ 78.4872706, 17.3559996 ] } },
{ "type": "Feature", "properties": { "Zone": "East", "Circle": "1", "Location": "Gokul Nagar", "No. of Plants Planted": 338, "No. of Plants Survived": 327, "Latitude": 17.3937906, "Longitude": 78.4592375 }, "geometry": { "type": "Point", "coordinates": [ 78.4592375, 17.3937906 ] } },
{ "type": "Feature", "properties": { "Zone": "East", "Circle": "1", "Location": "HCL Plantation", "No. of Plants Planted": 8621, "No. of Plants Survived": 7100, "Latitude": 17.385044, "Longitude": 78.486671 }, "geometry": { "type": "Point", "coordinates": [ 78.486671, 17.385044 ] } },
{ "type": "Feature", "properties": { "Zone": "East", "Circle": "1", "Location": "NFC Plantation", "No. of Plants Planted": 4000, "No. of Plants Survived": 3200, "Latitude": 17.4493655, "Longitude": 78.5745782 }, "geometry": { "type": "Point", "coordinates": [ 78.5745782, 17.4493655 ] } },
{ "type": "Feature", "properties": { "Zone": "East", "Circle": "1", "Location": "Sai Baba Nagar Grave Yard", "No. of Plants Planted": 300, "No. of Plants Survived": 192, "Latitude": 17.4551648, "Longitude": 78.4793885 }, "geometry": { "type": "Point", "coordinates": [ 78.4793885, 17.4551648 ] } },
{ "type": "Feature", "properties": { "Zone": "East", "Circle": "1", "Location": "Kushai guda Grave Yard (Bhavani Nagar Shanthivanam)", "No. of Plants Planted": 350, "No. of Plants Survived": 315, "Latitude": 17.4158024, "Longitude": 78.6055211 }, "geometry": { "type": "Point", "coordinates": [ 78.6055211, 17.4158024 ] } },
{ "type": "Feature", "properties": { "Zone": "East", "Circle": "1", "Location": "Vampuguda SC & Muslim Grave Yard", "No. of Plants Planted": 525, "No. of Plants Survived": 502, "Latitude": 17.385044, "Longitude": 78.486671 }, "geometry": { "type": "Point", "coordinates": [ 78.486671, 17.385044 ] } },
{ "type": "Feature", "properties": { "Zone": "East", "Circle": "1", "Location": "Yella Reddy Guda Grave Yard", "No. of Plants Planted": 450, "No. of Plants Survived": 430, "Latitude": 17.4453896, "Longitude": 78.4449535 }, "geometry": { "type": "Point", "coordinates": [ 78.4449535, 17.4453896 ] } },
{ "type": "Feature", "properties": { "Zone": "East", "Circle": "1", "Location": "Baba Nagar Grave Yard (Muslim Grave Yard)", "No. of Plants Planted": 200, "No. of Plants Survived": 145, "Latitude": 17.3781052, "Longitude": 78.4633087 }, "geometry": { "type": "Point", "coordinates": [ 78.4633087, 17.3781052 ] } },
{ "type": "Feature", "properties": { "Zone": "East", "Circle": "1", "Location": "Baba Nagar Grave Yard (Hindu GraveYard)", "No. of Plants Planted": 100, "No. of Plants Survived": 50, "Latitude": 17.4182321, "Longitude": 78.5091105 }, "geometry": { "type": "Point", "coordinates": [ 78.5091105, 17.4182321 ] } },
{ "type": "Feature", "properties": { "Zone": "East", "Circle": "1", "Location": "Mallapur Grave Yard", "No. of Plants Planted": 792, "No. of Plants Survived": 715, "Latitude": 17.4167563, "Longitude": 78.3951433 }, "geometry": { "type": "Point", "coordinates": [ 78.3951433, 17.4167563 ] } },
{ "type": "Feature", "properties": { "Zone": "East", "Circle": "1", "Location": "Yerra Kunta Grave Yard", "No. of Plants Planted": 50, "No. of Plants Survived": 47, "Latitude": 17.3137813, "Longitude": 78.4778897 }, "geometry": { "type": "Point", "coordinates": [ 78.4778897, 17.3137813 ] } },
{ "type": "Feature", "properties": { "Zone": "East", "Circle": "1", "Location": "Yerrakunta Grave Yard", "No. of Plants Planted": 532, "No. of Plants Survived": 495, "Latitude": 17.3066232, "Longitude": 78.4766152 }, "geometry": { "type": "Point", "coordinates": [ 78.4766152, 17.3066232 ] } },
{ "type": "Feature", "properties": { "Zone": "East", "Circle": "2", "Location": "Balaji Enclave -I", "No. of Plants Planted": 140, "No. of Plants Survived": 66, "Latitude": 17.5025699, "Longitude": 78.3611116 }, "geometry": { "type": "Point", "coordinates": [ 78.3611116, 17.5025699 ] } },
{ "type": "Feature", "properties": { "Zone": "East", "Circle": "2", "Location": "Balaji Enclave -II & III", "No. of Plants Planted": 20, "No. of Plants Survived": 17, "Latitude": 17.4059209, "Longitude": 78.56449 }, "geometry": { "type": "Point", "coordinates": [ 78.56449, 17.4059209 ] } },
{ "type": "Feature", "properties": { "Zone": "East", "Circle": "2", "Location": "Sri Sai Raghavendra Colony", "No. of Plants Planted": 48, "No. of Plants Survived": 0, "Latitude": 17.4722245, "Longitude": 78.3616601 }, "geometry": { "type": "Point", "coordinates": [ 78.3616601, 17.4722245 ] } },
{ "type": "Feature", "properties": { "Zone": "East", "Circle": "2", "Location": "Bank Colony", "No. of Plants Planted": 107, "No. of Plants Survived": 97, "Latitude": 17.3682203, "Longitude": 78.5160343 }, "geometry": { "type": "Point", "coordinates": [ 78.5160343, 17.3682203 ] } },
{ "type": "Feature", "properties": { "Zone": "East", "Circle": "2", "Location": "Sita Ram Colony", "No. of Plants Planted": 45, "No. of Plants Survived": 19, "Latitude": 17.4608584, "Longitude": 78.4940183 }, "geometry": { "type": "Point", "coordinates": [ 78.4940183, 17.4608584 ] } },
{ "type": "Feature", "properties": { "Zone": "East", "Circle": "2", "Location": "Raghavendra Colony", "No. of Plants Planted": 40, "No. of Plants Survived": 8, "Latitude": 17.4715685, "Longitude": 78.3600448 }, "geometry": { "type": "Point", "coordinates": [ 78.3600448, 17.4715685 ] } },
{ "type": "Feature", "properties": { "Zone": "East", "Circle": "2", "Location": "Kalyanpuri Community Hall", "No. of Plants Planted": 18, "No. of Plants Survived": 16, "Latitude": 17.4148943, "Longitude": 78.5600207 }, "geometry": { "type": "Point", "coordinates": [ 78.5600207, 17.4148943 ] } },
{ "type": "Feature", "properties": { "Zone": "East", "Circle": "2", "Location": "Sri Nagar Colony -I & II", "No. of Plants Planted": 86, "No. of Plants Survived": 26, "Latitude": 17.4297405, "Longitude": 78.440001 }, "geometry": { "type": "Point", "coordinates": [ 78.440001, 17.4297405 ] } },
{ "type": "Feature", "properties": { "Zone": "East", "Circle": "2", "Location": "High Court Colony - I, II & III", "No. of Plants Planted": 110, "No. of Plants Survived": 62, "Latitude": 17.3316147, "Longitude": 78.5844578 }, "geometry": { "type": "Point", "coordinates": [ 78.5844578, 17.3316147 ] } },
{ "type": "Feature", "properties": { "Zone": "East", "Circle": "2", "Location": "Sai Ram Nagar Colony - I & II", "No. of Plants Planted": 48, "No. of Plants Survived": 36, "Latitude": 17.3402998, "Longitude": 78.5227508 }, "geometry": { "type": "Point", "coordinates": [ 78.5227508, 17.3402998 ] } },
{ "type": "Feature", "properties": { "Zone": "East", "Circle": "2", "Location": "Teachers Colony", "No. of Plants Planted": 39, "No. of Plants Survived": 18, "Latitude": 17.3167087, "Longitude": 78.5504691 }, "geometry": { "type": "Point", "coordinates": [ 78.5504691, 17.3167087 ] } },
{ "type": "Feature", "properties": { "Zone": "East", "Circle": "2", "Location": "East Kalyanpuri", "No. of Plants Planted": 47, "No. of Plants Survived": 43, "Latitude": 17.4139813, "Longitude": 78.5582774 }, "geometry": { "type": "Point", "coordinates": [ 78.5582774, 17.4139813 ] } },
{ "type": "Feature", "properties": { "Zone": "East", "Circle": "2", "Location": "Vijay Puri Colony - I, II & III", "No. of Plants Planted": 150, "No. of Plants Survived": 59, "Latitude": 17.3701311, "Longitude": 78.5459299 }, "geometry": { "type": "Point", "coordinates": [ 78.5459299, 17.3701311 ] } },
{ "type": "Feature", "properties": { "Zone": "East", "Circle": "2", "Location": "H- Block (Sai Baba Temple )", "No. of Plants Planted": 60, "No. of Plants Survived": 34, "Latitude": 17.4131425, "Longitude": 78.4070176 }, "geometry": { "type": "Point", "coordinates": [ 78.4070176, 17.4131425 ] } },
{ "type": "Feature", "properties": { "Zone": "East", "Circle": "2", "Location": "Ravindra Nagar Colony -I & II", "No. of Plants Planted": 64, "No. of Plants Survived": 38, "Latitude": 17.4022875, "Longitude": 78.5417728 }, "geometry": { "type": "Point", "coordinates": [ 78.5417728, 17.4022875 ] } },
{ "type": "Feature", "properties": { "Zone": "East", "Circle": "2", "Location": "Vignanpuri Colony", "No. of Plants Planted": 21, "No. of Plants Survived": 0, "Latitude": 17.312725, "Longitude": 78.5570104 }, "geometry": { "type": "Point", "coordinates": [ 78.5570104, 17.312725 ] } },
{ "type": "Feature", "properties": { "Zone": "East", "Circle": "2", "Location": "Surya Nagar Colony", "No. of Plants Planted": 10, "No. of Plants Survived": 4, "Latitude": 17.399648, "Longitude": 78.4119492 }, "geometry": { "type": "Point", "coordinates": [ 78.4119492, 17.399648 ] } },
{ "type": "Feature", "properties": { "Zone": "East", "Circle": "2", "Location": "Old Ramanthapur", "No. of Plants Planted": 35, "No. of Plants Survived": 3, "Latitude": 17.3899944, "Longitude": 78.5305863 }, "geometry": { "type": "Point", "coordinates": [ 78.5305863, 17.3899944 ] } },
{ "type": "Feature", "properties": { "Zone": "East", "Circle": "2", "Location": "Ramanthapoor  Ward Office", "No. of Plants Planted": 55, "No. of Plants Survived": 0, "Latitude": 17.4027009, "Longitude": 78.55981 }, "geometry": { "type": "Point", "coordinates": [ 78.55981, 17.4027009 ] } },
{ "type": "Feature", "properties": { "Zone": "East", "Circle": "2", "Location": "Pragathi Nagar- III, IV & V", "No. of Plants Planted": 100, "No. of Plants Survived": 21, "Latitude": 17.5186369, "Longitude": 78.3962529 }, "geometry": { "type": "Point", "coordinates": [ 78.3962529, 17.5186369 ] } },
{ "type": "Feature", "properties": { "Zone": "East", "Circle": "2", "Location": "Vivek Nagar Colony", "No. of Plants Planted": 42, "No. of Plants Survived": 34, "Latitude": 17.3326128, "Longitude": 78.5239338 }, "geometry": { "type": "Point", "coordinates": [ 78.5239338, 17.3326128 ] } },
{ "type": "Feature", "properties": { "Zone": "East", "Circle": "2", "Location": "Arvind Nagar", "No. of Plants Planted": 28, "No. of Plants Survived": 10, "Latitude": 17.3798262, "Longitude": 78.5153242 }, "geometry": { "type": "Point", "coordinates": [ 78.5153242, 17.3798262 ] } },
{ "type": "Feature", "properties": { "Zone": "East", "Circle": "2", "Location": "Beerappagada , Uppal", "No. of Plants Planted": 39, "No. of Plants Survived": 11, "Latitude": 17.4047682, "Longitude": 78.5653697 }, "geometry": { "type": "Point", "coordinates": [ 78.5653697, 17.4047682 ] } },
{ "type": "Feature", "properties": { "Zone": "East", "Circle": "2", "Location": "Satya Nagar", "No. of Plants Planted": 30, "No. of Plants Survived": 20, "Latitude": 17.3345092, "Longitude": 78.6132735 }, "geometry": { "type": "Point", "coordinates": [ 78.6132735, 17.3345092 ] } },
{ "type": "Feature", "properties": { "Zone": "East", "Circle": "2", "Location": "TV.Colony - I, II & III", "No. of Plants Planted": 100, "No. of Plants Survived": 80, "Latitude": 17.33077, "Longitude": 78.5665033 }, "geometry": { "type": "Point", "coordinates": [ 78.5665033, 17.33077 ] } },
{ "type": "Feature", "properties": { "Zone": "East", "Circle": "2", "Location": "TV.Colony  Big Area", "No. of Plants Planted": 160, "No. of Plants Survived": 144, "Latitude": 17.385044, "Longitude": 78.486671 }, "geometry": { "type": "Point", "coordinates": [ 78.486671, 17.385044 ] } },
{ "type": "Feature", "properties": { "Zone": "East", "Circle": "2", "Location": "Sri Ramanapuram (Temple)", "No. of Plants Planted": 62, "No. of Plants Survived": 61, "Latitude": 17.3883255, "Longitude": 78.5377273 }, "geometry": { "type": "Point", "coordinates": [ 78.5377273, 17.3883255 ] } },
{ "type": "Feature", "properties": { "Zone": "East", "Circle": "2", "Location": "Sri Ramanapuram", "No. of Plants Planted": 79, "No. of Plants Survived": 76, "Latitude": 17.3870318, "Longitude": 78.5454999 }, "geometry": { "type": "Point", "coordinates": [ 78.5454999, 17.3870318 ] } },
{ "type": "Feature", "properties": { "Zone": "East", "Circle": "2", "Location": "Padmavathi Colony", "No. of Plants Planted": 60, "No. of Plants Survived": 44, "Latitude": 17.3776881, "Longitude": 78.5622984 }, "geometry": { "type": "Point", "coordinates": [ 78.5622984, 17.3776881 ] } },
{ "type": "Feature", "properties": { "Zone": "East", "Circle": "2", "Location": "Gandhi Nagar Colony", "No. of Plants Planted": 45, "No. of Plants Survived": 2, "Latitude": 17.4116069, "Longitude": 78.5486944 }, "geometry": { "type": "Point", "coordinates": [ 78.5486944, 17.4116069 ] } },
{ "type": "Feature", "properties": { "Zone": "East", "Circle": "2", "Location": "Seven Hills", "No. of Plants Planted": 34, "No. of Plants Survived": 10, "Latitude": 17.3911317, "Longitude": 78.3447159 }, "geometry": { "type": "Point", "coordinates": [ 78.3447159, 17.3911317 ] } },
{ "type": "Feature", "properties": { "Zone": "East", "Circle": "2", "Location": "South Swaroop Nagar", "No. of Plants Planted": 21, "No. of Plants Survived": 10, "Latitude": 17.4054255, "Longitude": 78.5720749 }, "geometry": { "type": "Point", "coordinates": [ 78.5720749, 17.4054255 ] } },
{ "type": "Feature", "properties": { "Zone": "East", "Circle": "2", "Location": "Shanti Nagar", "No. of Plants Planted": 40, "No. of Plants Survived": 0, "Latitude": 17.4011088, "Longitude": 78.4556565 }, "geometry": { "type": "Point", "coordinates": [ 78.4556565, 17.4011088 ] } },
{ "type": "Feature", "properties": { "Zone": "East", "Circle": "2", "Location": "Nalla Cheruvu Katta", "No. of Plants Planted": 764, "No. of Plants Survived": 705, "Latitude": 17.4032165, "Longitude": 78.5799246 }, "geometry": { "type": "Point", "coordinates": [ 78.5799246, 17.4032165 ] } },
{ "type": "Feature", "properties": { "Zone": "East", "Circle": "2", "Location": "Musi River Nursery", "No. of Plants Planted": 315, "No. of Plants Survived": 315, "Latitude": 17.3560514, "Longitude": 78.4228634 }, "geometry": { "type": "Point", "coordinates": [ 78.4228634, 17.3560514 ] } },
{ "type": "Feature", "properties": { "Zone": "East", "Circle": "2", "Location": "Gandhi Nagar Grave Yard", "No. of Plants Planted": 40, "No. of Plants Survived": 30, "Latitude": 17.4128401, "Longitude": 78.4977366 }, "geometry": { "type": "Point", "coordinates": [ 78.4977366, 17.4128401 ] } },
{ "type": "Feature", "properties": { "Zone": "East", "Circle": "2", "Location": "Grave Yard (Hindu)", "No. of Plants Planted": 24, "No. of Plants Survived": 8, "Latitude": 17.4078337, "Longitude": 78.4479346 }, "geometry": { "type": "Point", "coordinates": [ 78.4479346, 17.4078337 ] } },
{ "type": "Feature", "properties": { "Zone": "East", "Circle": "2", "Location": "Grave Yard (Qubrastan)", "No. of Plants Planted": 84, "No. of Plants Survived": 64, "Latitude": 17.3380627, "Longitude": 78.430102 }, "geometry": { "type": "Point", "coordinates": [ 78.430102, 17.3380627 ] } },
{ "type": "Feature", "properties": { "Zone": "East", "Circle": "2", "Location": "Netaji Nagar Grave Yard", "No. of Plants Planted": 27, "No. of Plants Survived": 3, "Latitude": 17.4167563, "Longitude": 78.3951433 }, "geometry": { "type": "Point", "coordinates": [ 78.3951433, 17.4167563 ] } },
{ "type": "Feature", "properties": { "Zone": "East", "Circle": "2", "Location": "Grave Yard Ramanthapor", "No. of Plants Planted": 24, "No. of Plants Survived": 4, "Latitude": 17.3827413, "Longitude": 78.5593808 }, "geometry": { "type": "Point", "coordinates": [ 78.5593808, 17.3827413 ] } },
{ "type": "Feature", "properties": { "Zone": "East", "Circle": "2", "Location": "Green Hills Colony", "No. of Plants Planted": 84, "No. of Plants Survived": 80, "Latitude": 17.3588944, "Longitude": 78.5479166 }, "geometry": { "type": "Point", "coordinates": [ 78.5479166, 17.3588944 ] } },
{ "type": "Feature", "properties": { "Zone": "East", "Circle": "2", "Location": "Grave Yard (Hindu Chilkanagar)", "No. of Plants Planted": 12, "No. of Plants Survived": 8, "Latitude": 17.4397591, "Longitude": 78.5350282 }, "geometry": { "type": "Point", "coordinates": [ 78.5350282, 17.4397591 ] } },
{ "type": "Feature", "properties": { "Zone": "East", "Circle": "2", "Location": "Grave Yard (Christian  Chilkanagar)", "No. of Plants Planted": 105, "No. of Plants Survived": 30, "Latitude": 17.4143213, "Longitude": 78.5634483 }, "geometry": { "type": "Point", "coordinates": [ 78.5634483, 17.4143213 ] } },
{ "type": "Feature", "properties": { "Zone": "East", "Circle": "2", "Location": "Grave Yard (Naini Bhramani )", "No. of Plants Planted": 35, "No. of Plants Survived": 15, "Latitude": 25.3791939, "Longitude": 81.8770671 }, "geometry": { "type": "Point", "coordinates": [ 81.8770671, 25.3791939 ] } },
{ "type": "Feature", "properties": { "Zone": "East", "Circle": "2", "Location": "Uppal Indoor Stadium", "No. of Plants Planted": 79, "No. of Plants Survived": 60, "Latitude": 17.4065262, "Longitude": 78.5504704 }, "geometry": { "type": "Point", "coordinates": [ 78.5504704, 17.4065262 ] } },
{ "type": "Feature", "properties": { "Zone": "East", "Circle": "3A", "Location": "Goud Sangam Nagole", "No. of Plants Planted": 70, "No. of Plants Survived": 52, "Latitude": 17.402828, "Longitude": 78.487091 }, "geometry": { "type": "Point", "coordinates": [ 78.487091, 17.402828 ] } },
{ "type": "Feature", "properties": { "Zone": "East", "Circle": "3A", "Location": "Maisamma Temple Nagole", "No. of Plants Planted": 50, "No. of Plants Survived": 44, "Latitude": 17.3914121, "Longitude": 78.5671823 }, "geometry": { "type": "Point", "coordinates": [ 78.5671823, 17.3914121 ] } },
{ "type": "Feature", "properties": { "Zone": "East", "Circle": "3A", "Location": "Nagole grave yard", "No. of Plants Planted": 180, "No. of Plants Survived": 170, "Latitude": 17.3827413, "Longitude": 78.5593808 }, "geometry": { "type": "Point", "coordinates": [ 78.5593808, 17.3827413 ] } },
{ "type": "Feature", "properties": { "Zone": "East", "Circle": "3A", "Location": "Jai puri colony grave yard", "No. of Plants Planted": 103, "No. of Plants Survived": 78, "Latitude": 17.3819874, "Longitude": 78.5721534 }, "geometry": { "type": "Point", "coordinates": [ 78.5721534, 17.3819874 ] } },
{ "type": "Feature", "properties": { "Zone": "East", "Circle": "3A", "Location": "Pochamma Temple Nagole", "No. of Plants Planted": 130, "No. of Plants Survived": 115, "Latitude": 17.3786367, "Longitude": 78.5688838 }, "geometry": { "type": "Point", "coordinates": [ 78.5688838, 17.3786367 ] } },
{ "type": "Feature", "properties": { "Zone": "East", "Circle": "3A", "Location": "Chanikayapuri Commuinty hall", "No. of Plants Planted": 25, "No. of Plants Survived": 22, "Latitude": 17.3636632, "Longitude": 78.5647543 }, "geometry": { "type": "Point", "coordinates": [ 78.5647543, 17.3636632 ] } },
{ "type": "Feature", "properties": { "Zone": "East", "Circle": "3A", "Location": "Jana Priya Enclave", "No. of Plants Planted": 36, "No. of Plants Survived": 30, "Latitude": 17.3787054, "Longitude": 78.5525987 }, "geometry": { "type": "Point", "coordinates": [ 78.5525987, 17.3787054 ] } },
{ "type": "Feature", "properties": { "Zone": "East", "Circle": "3A", "Location": "Sai Sapathagiri", "No. of Plants Planted": 25, "No. of Plants Survived": 21, "Latitude": 17.3564487, "Longitude": 78.5643107 }, "geometry": { "type": "Point", "coordinates": [ 78.5643107, 17.3564487 ] } },
{ "type": "Feature", "properties": { "Zone": "East", "Circle": "3A", "Location": "ANITHA NAGAR,  32,33,34,35", "No. of Plants Planted": 128, "No. of Plants Survived": 110, "Latitude": 17.3413239, "Longitude": 78.5681663 }, "geometry": { "type": "Point", "coordinates": [ 78.5681663, 17.3413239 ] } },
{ "type": "Feature", "properties": { "Zone": "East", "Circle": "3A", "Location": "VIJAYASHREE COLONY PHASE III", "No. of Plants Planted": 20, "No. of Plants Survived": 16, "Latitude": 17.488512, "Longitude": 78.396666 }, "geometry": { "type": "Point", "coordinates": [ 78.396666, 17.488512 ] } },
{ "type": "Feature", "properties": { "Zone": "East", "Circle": "3A", "Location": "Pragathi nagar Phase II Mansoorabad", "No. of Plants Planted": 20, "No. of Plants Survived": 18, "Latitude": 17.5206825, "Longitude": 78.3911699 }, "geometry": { "type": "Point", "coordinates": [ 78.3911699, 17.5206825 ] } },
{ "type": "Feature", "properties": { "Zone": "East", "Circle": "3A", "Location": "Balaji Nagar (Open Space)", "No. of Plants Planted": 90, "No. of Plants Survived": 56, "Latitude": 17.3993633, "Longitude": 78.3760456 }, "geometry": { "type": "Point", "coordinates": [ 78.3760456, 17.3993633 ] } },
{ "type": "Feature", "properties": { "Zone": "East", "Circle": "3A", "Location": "VIJAYASHREE COLONY PHASE I", "No. of Plants Planted": 60, "No. of Plants Survived": 47, "Latitude": 17.339165, "Longitude": 78.5738923 }, "geometry": { "type": "Point", "coordinates": [ 78.5738923, 17.339165 ] } },
{ "type": "Feature", "properties": { "Zone": "East", "Circle": "3A", "Location": "VIJAYASHREE COLONY PHASE II", "No. of Plants Planted": 50, "No. of Plants Survived": 42, "Latitude": 17.332066, "Longitude": 78.5706985 }, "geometry": { "type": "Point", "coordinates": [ 78.5706985, 17.332066 ] } },
{ "type": "Feature", "properties": { "Zone": "East", "Circle": "3A", "Location": "Mansorabad Masjid (Open Space)", "No. of Plants Planted": 6, "No. of Plants Survived": 5, "Latitude": 17.3513724, "Longitude": 78.5654087 }, "geometry": { "type": "Point", "coordinates": [ 78.5654087, 17.3513724 ] } },
{ "type": "Feature", "properties": { "Zone": "East", "Circle": "3A", "Location": "Mallikarjuna Nagar  Sy.No. 11\/a (Commercial)", "No. of Plants Planted": 35, "No. of Plants Survived": 28, "Latitude": 17.4202321, "Longitude": 78.5593422 }, "geometry": { "type": "Point", "coordinates": [ 78.5593422, 17.4202321 ] } },
{ "type": "Feature", "properties": { "Zone": "East", "Circle": "3A", "Location": "Madhura Nagar", "No. of Plants Planted": 38, "No. of Plants Survived": 19, "Latitude": 17.4388159, "Longitude": 78.434546 }, "geometry": { "type": "Point", "coordinates": [ 78.434546, 17.4388159 ] } },
{ "type": "Feature", "properties": { "Zone": "East", "Circle": "3A", "Location": "Pragathi nagar Phase I Mansoorabad", "No. of Plants Planted": 60, "No. of Plants Survived": 52, "Latitude": 17.3433328, "Longitude": 78.5688355 }, "geometry": { "type": "Point", "coordinates": [ 78.5688355, 17.3433328 ] } },
{ "type": "Feature", "properties": { "Zone": "East", "Circle": "3A", "Location": "Pragathi nagar PhaseIII Mansoorabad", "No. of Plants Planted": 45, "No. of Plants Survived": 40, "Latitude": 17.3432273, "Longitude": 78.5687567 }, "geometry": { "type": "Point", "coordinates": [ 78.5687567, 17.3432273 ] } },
{ "type": "Feature", "properties": { "Zone": "East", "Circle": "3A", "Location": "Pragathi nagar Phase IV Mansoorabad", "No. of Plants Planted": 35, "No. of Plants Survived": 30, "Latitude": 17.5186369, "Longitude": 78.3962529 }, "geometry": { "type": "Point", "coordinates": [ 78.3962529, 17.5186369 ] } },
{ "type": "Feature", "properties": { "Zone": "East", "Circle": "3A", "Location": "ANITHA NAGAR, Phase II", "No. of Plants Planted": 30, "No. of Plants Survived": 24, "Latitude": 17.4956494, "Longitude": 78.466314 }, "geometry": { "type": "Point", "coordinates": [ 78.466314, 17.4956494 ] } },
{ "type": "Feature", "properties": { "Zone": "East", "Circle": "3A", "Location": "Sree ram Hills Colony", "No. of Plants Planted": 55, "No. of Plants Survived": 35, "Latitude": 17.3469443, "Longitude": 78.563601 }, "geometry": { "type": "Point", "coordinates": [ 78.563601, 17.3469443 ] } },
{ "type": "Feature", "properties": { "Zone": "East", "Circle": "3A", "Location": "CRIDA  (During the year 2016-17)", "No. of Plants Planted": 1640, "No. of Plants Survived": 1632, "Latitude": 17.3486895, "Longitude": 78.5010898 }, "geometry": { "type": "Point", "coordinates": [ 78.5010898, 17.3486895 ] } },
{ "type": "Feature", "properties": { "Zone": "East", "Circle": "3A", "Location": "CRIDA  (During the year 2016-17)", "No. of Plants Planted": 1650, "No. of Plants Survived": 1640, "Latitude": 17.3486895, "Longitude": 78.5010898 }, "geometry": { "type": "Point", "coordinates": [ 78.5010898, 17.3486895 ] } },
{ "type": "Feature", "properties": { "Zone": "East", "Circle": "3A", "Location": "CRIDA  (During the year 2016-17)", "No. of Plants Planted": 772, "No. of Plants Survived": 741, "Latitude": 17.3486895, "Longitude": 78.5010898 }, "geometry": { "type": "Point", "coordinates": [ 78.5010898, 17.3486895 ] } },
{ "type": "Feature", "properties": { "Zone": "East", "Circle": "3A", "Location": "Defence Colony  Temple", "No. of Plants Planted": 12, "No. of Plants Survived": 10, "Latitude": 17.320571, "Longitude": 78.6112299 }, "geometry": { "type": "Point", "coordinates": [ 78.6112299, 17.320571 ] } },
{ "type": "Feature", "properties": { "Zone": "East", "Circle": "3A", "Location": "RTC Colony, Bagh Hayathnagar", "No. of Plants Planted": 68, "No. of Plants Survived": 58, "Latitude": 17.3099318, "Longitude": 78.5845374 }, "geometry": { "type": "Point", "coordinates": [ 78.5845374, 17.3099318 ] } },
{ "type": "Feature", "properties": { "Zone": "East", "Circle": "3A", "Location": "Kamala Nagar", "No. of Plants Planted": 36, "No. of Plants Survived": 32, "Latitude": 17.4729045, "Longitude": 78.5666175 }, "geometry": { "type": "Point", "coordinates": [ 78.5666175, 17.4729045 ] } },
{ "type": "Feature", "properties": { "Zone": "East", "Circle": "3A", "Location": "HUDA Sai Nagar Community Hall", "No. of Plants Planted": 43, "No. of Plants Survived": 40, "Latitude": 17.3318297, "Longitude": 78.5784609 }, "geometry": { "type": "Point", "coordinates": [ 78.5784609, 17.3318297 ] } },
{ "type": "Feature", "properties": { "Zone": "East", "Circle": "3A", "Location": "HUDA Sai Nagar Senior Citizen", "No. of Plants Planted": 10, "No. of Plants Survived": 10, "Latitude": 17.367864, "Longitude": 78.575485 }, "geometry": { "type": "Point", "coordinates": [ 78.575485, 17.367864 ] } },
{ "type": "Feature", "properties": { "Zone": "East", "Circle": "3A", "Location": "HUDA Sai Nagar Road no:1", "No. of Plants Planted": 45, "No. of Plants Survived": 35, "Latitude": 17.3316, "Longitude": 78.586457 }, "geometry": { "type": "Point", "coordinates": [ 78.586457, 17.3316 ] } },
{ "type": "Feature", "properties": { "Zone": "East", "Circle": "3A", "Location": "Sai Nagar Colony , Hyathnagar", "No. of Plants Planted": 23, "No. of Plants Survived": 21, "Latitude": 17.3199236, "Longitude": 78.5937622 }, "geometry": { "type": "Point", "coordinates": [ 78.5937622, 17.3199236 ] } },
{ "type": "Feature", "properties": { "Zone": "East", "Circle": "3A", "Location": "Defence Colony  Temple", "No. of Plants Planted": 48, "No. of Plants Survived": 45, "Latitude": 17.320571, "Longitude": 78.6112299 }, "geometry": { "type": "Point", "coordinates": [ 78.6112299, 17.320571 ] } },
{ "type": "Feature", "properties": { "Zone": "East", "Circle": "3A", "Location": "Dwarakamai  Nagar Temple", "No. of Plants Planted": 31, "No. of Plants Survived": 25, "Latitude": 17.3300868, "Longitude": 78.5854867 }, "geometry": { "type": "Point", "coordinates": [ 78.5854867, 17.3300868 ] } },
{ "type": "Feature", "properties": { "Zone": "East", "Circle": "3A", "Location": "Dwaraka Nagar Community Hall", "No. of Plants Planted": 60, "No. of Plants Survived": 55, "Latitude": 17.4918858, "Longitude": 78.4553889 }, "geometry": { "type": "Point", "coordinates": [ 78.4553889, 17.4918858 ] } },
{ "type": "Feature", "properties": { "Zone": "East", "Circle": "3A", "Location": "Dwarakamai  Nagar Colony", "No. of Plants Planted": 15, "No. of Plants Survived": 15, "Latitude": 17.3351236, "Longitude": 78.5795698 }, "geometry": { "type": "Point", "coordinates": [ 78.5795698, 17.3351236 ] } },
{ "type": "Feature", "properties": { "Zone": "East", "Circle": "3A", "Location": "Auto Nagar Grave Yard , Mansurabad", "No. of Plants Planted": 160, "No. of Plants Survived": 132, "Latitude": 17.3584774, "Longitude": 78.5674784 }, "geometry": { "type": "Point", "coordinates": [ 78.5674784, 17.3584774 ] } },
{ "type": "Feature", "properties": { "Zone": "East", "Circle": "3A", "Location": "Hayath nagar  grave yard (Munaganooru)", "No. of Plants Planted": 267, "No. of Plants Survived": 242, "Latitude": 17.3158428, "Longitude": 78.5829849 }, "geometry": { "type": "Point", "coordinates": [ 78.5829849, 17.3158428 ] } },
{ "type": "Feature", "properties": { "Zone": "East", "Circle": "3A", "Location": "Anmagal , Hyathnagar", "No. of Plants Planted": 60, "No. of Plants Survived": 52, "Latitude": 17.3133826, "Longitude": 78.6062882 }, "geometry": { "type": "Point", "coordinates": [ 78.6062882, 17.3133826 ] } },
{ "type": "Feature", "properties": { "Zone": "East", "Circle": "3A", "Location": "Vaidehi Nagar Road no:3", "No. of Plants Planted": 18, "No. of Plants Survived": 15, "Latitude": 17.3193699, "Longitude": 78.5709668 }, "geometry": { "type": "Point", "coordinates": [ 78.5709668, 17.3193699 ] } },
{ "type": "Feature", "properties": { "Zone": "East", "Circle": "3A", "Location": "Bhavani Enclave , Temple", "No. of Plants Planted": 10, "No. of Plants Survived": 10, "Latitude": 17.3066418, "Longitude": 78.5883486 }, "geometry": { "type": "Point", "coordinates": [ 78.5883486, 17.3066418 ] } },
{ "type": "Feature", "properties": { "Zone": "East", "Circle": "3A", "Location": "SKD - DPHS", "No. of Plants Planted": 24, "No. of Plants Survived": 23, "Latitude": 17.385044, "Longitude": 78.486671 }, "geometry": { "type": "Point", "coordinates": [ 78.486671, 17.385044 ] } },
{ "type": "Feature", "properties": { "Zone": "East", "Circle": "3A", "Location": "Teachers Colony", "No. of Plants Planted": 454, "No. of Plants Survived": 402, "Latitude": 17.3167087, "Longitude": 78.5504691 }, "geometry": { "type": "Point", "coordinates": [ 78.5504691, 17.3167087 ] } },
{ "type": "Feature", "properties": { "Zone": "East", "Circle": "3A", "Location": "Vaidehi Nagar Road no:3", "No. of Plants Planted": 21, "No. of Plants Survived": 18, "Latitude": 17.3193699, "Longitude": 78.5709668 }, "geometry": { "type": "Point", "coordinates": [ 78.5709668, 17.3193699 ] } },
{ "type": "Feature", "properties": { "Zone": "East", "Circle": "3A", "Location": "Shaeb nagar grave yard", "No. of Plants Planted": 723, "No. of Plants Survived": 675, "Latitude": 17.3167857, "Longitude": 78.5834729 }, "geometry": { "type": "Point", "coordinates": [ 78.5834729, 17.3167857 ] } },
{ "type": "Feature", "properties": { "Zone": "East", "Circle": "3A", "Location": "Bhavani Enclave , Ganesh Mandapam", "No. of Plants Planted": 118, "No. of Plants Survived": 109, "Latitude": 17.385044, "Longitude": 78.486671 }, "geometry": { "type": "Point", "coordinates": [ 78.486671, 17.385044 ] } },
{ "type": "Feature", "properties": { "Zone": "East", "Circle": "3A", "Location": "Opp: Karthi Keya School , SKD", "No. of Plants Planted": 30, "No. of Plants Survived": 25, "Latitude": 17.3306602, "Longitude": 78.5731652 }, "geometry": { "type": "Point", "coordinates": [ 78.5731652, 17.3306602 ] } },
{ "type": "Feature", "properties": { "Zone": "East", "Circle": "3A", "Location": "SKD - Road no:14(B)", "No. of Plants Planted": 95, "No. of Plants Survived": 52, "Latitude": 17.4226073, "Longitude": 78.4277178 }, "geometry": { "type": "Point", "coordinates": [ 78.4277178, 17.4226073 ] } },
{ "type": "Feature", "properties": { "Zone": "East", "Circle": "3B", "Location": "Anuradha Colony", "No. of Plants Planted": 50, "No. of Plants Survived": 44, "Latitude": 17.3325246, "Longitude": 78.5574943 }, "geometry": { "type": "Point", "coordinates": [ 78.5574943, 17.3325246 ] } },
{ "type": "Feature", "properties": { "Zone": "East", "Circle": "3B", "Location": "RSS Ground", "No. of Plants Planted": 53, "No. of Plants Survived": 42, "Latitude": 17.3247181, "Longitude": 78.5647543 }, "geometry": { "type": "Point", "coordinates": [ 78.5647543, 17.3247181 ] } },
{ "type": "Feature", "properties": { "Zone": "East", "Circle": "3B", "Location": "Sachivalaya nagar Play Ground", "No. of Plants Planted": 60, "No. of Plants Survived": 43, "Latitude": 17.3176778, "Longitude": 78.5668849 }, "geometry": { "type": "Point", "coordinates": [ 78.5668849, 17.3176778 ] } },
{ "type": "Feature", "properties": { "Zone": "East", "Circle": "3B", "Location": "Sachivalaya nagar community Hall", "No. of Plants Planted": 125, "No. of Plants Survived": 118, "Latitude": 17.3310843, "Longitude": 78.5717854 }, "geometry": { "type": "Point", "coordinates": [ 78.5717854, 17.3310843 ] } },
{ "type": "Feature", "properties": { "Zone": "East", "Circle": "3B", "Location": "Yeshoda Nagar Colony", "No. of Plants Planted": 45, "No. of Plants Survived": 42, "Latitude": 17.3376655, "Longitude": 78.5510015 }, "geometry": { "type": "Point", "coordinates": [ 78.5510015, 17.3376655 ] } },
{ "type": "Feature", "properties": { "Zone": "East", "Circle": "3B", "Location": "Vanastalipuram Govt Hospital", "No. of Plants Planted": 32, "No. of Plants Survived": 29, "Latitude": 17.3288056, "Longitude": 78.5638778 }, "geometry": { "type": "Point", "coordinates": [ 78.5638778, 17.3288056 ] } },
{ "type": "Feature", "properties": { "Zone": "East", "Circle": "3B", "Location": "RTC Colony, Road no:3 , Chintal Kunta", "No. of Plants Planted": 35, "No. of Plants Survived": 32, "Latitude": 17.3512186, "Longitude": 78.5533784 }, "geometry": { "type": "Point", "coordinates": [ 78.5533784, 17.3512186 ] } },
{ "type": "Feature", "properties": { "Zone": "East", "Circle": "3B", "Location": "RTC Colony, Road no:1 , Temple", "No. of Plants Planted": 35, "No. of Plants Survived": 28, "Latitude": 17.3665478, "Longitude": 78.5843642 }, "geometry": { "type": "Point", "coordinates": [ 78.5843642, 17.3665478 ] } },
{ "type": "Feature", "properties": { "Zone": "East", "Circle": "3B", "Location": "Venkataramana Colony", "No. of Plants Planted": 20, "No. of Plants Survived": 20, "Latitude": 17.3339808, "Longitude": 78.5596971 }, "geometry": { "type": "Point", "coordinates": [ 78.5596971, 17.3339808 ] } },
{ "type": "Feature", "properties": { "Zone": "East", "Circle": "3B", "Location": "FCI Colony opp F251 Community Hall", "No. of Plants Planted": 58, "No. of Plants Survived": 48, "Latitude": 17.3528599, "Longitude": 78.5072936 }, "geometry": { "type": "Point", "coordinates": [ 78.5072936, 17.3528599 ] } },
{ "type": "Feature", "properties": { "Zone": "East", "Circle": "3B", "Location": "FCI Colony, Road no: 3", "No. of Plants Planted": 104, "No. of Plants Survived": 86, "Latitude": 17.331679, "Longitude": 78.5632769 }, "geometry": { "type": "Point", "coordinates": [ 78.5632769, 17.331679 ] } },
{ "type": "Feature", "properties": { "Zone": "East", "Circle": "3B", "Location": "Radio Colony", "No. of Plants Planted": 90, "No. of Plants Survived": 82, "Latitude": 17.3397797, "Longitude": 78.5529537 }, "geometry": { "type": "Point", "coordinates": [ 78.5529537, 17.3397797 ] } },
{ "type": "Feature", "properties": { "Zone": "East", "Circle": "3B", "Location": "Engineers Colony", "No. of Plants Planted": 64, "No. of Plants Survived": 56, "Latitude": 17.4356103, "Longitude": 78.4340348 }, "geometry": { "type": "Point", "coordinates": [ 78.4340348, 17.4356103 ] } },
{ "type": "Feature", "properties": { "Zone": "East", "Circle": "3B", "Location": "Vanastalipuram Govt Hospital", "No. of Plants Planted": 71, "No. of Plants Survived": 68, "Latitude": 17.3288056, "Longitude": 78.5638778 }, "geometry": { "type": "Point", "coordinates": [ 78.5638778, 17.3288056 ] } },
{ "type": "Feature", "properties": { "Zone": "East", "Circle": "3B", "Location": "VanastalipuramPhase IV", "No. of Plants Planted": 34, "No. of Plants Survived": 30, "Latitude": 17.3251945, "Longitude": 78.5568502 }, "geometry": { "type": "Point", "coordinates": [ 78.5568502, 17.3251945 ] } },
{ "type": "Feature", "properties": { "Zone": "East", "Circle": "3B", "Location": "Vanastalipuram Phase IV Community Hall", "No. of Plants Planted": 15, "No. of Plants Survived": 13, "Latitude": 17.3201264, "Longitude": 78.5721507 }, "geometry": { "type": "Point", "coordinates": [ 78.5721507, 17.3201264 ] } },
{ "type": "Feature", "properties": { "Zone": "East", "Circle": "3B", "Location": "HUDA Ground , Ramalayam", "No. of Plants Planted": 40, "No. of Plants Survived": 33, "Latitude": 17.4886625, "Longitude": 78.3321265 }, "geometry": { "type": "Point", "coordinates": [ 78.3321265, 17.4886625 ] } },
{ "type": "Feature", "properties": { "Zone": "East", "Circle": "3B", "Location": "Sai Ram Nagar Beside Vijay Laxmi Theatre", "No. of Plants Planted": 37, "No. of Plants Survived": 34, "Latitude": 17.3697893, "Longitude": 78.3991533 }, "geometry": { "type": "Point", "coordinates": [ 78.3991533, 17.3697893 ] } },
{ "type": "Feature", "properties": { "Zone": "East", "Circle": "3B", "Location": "Radio Colony community hall", "No. of Plants Planted": 24, "No. of Plants Survived": 21, "Latitude": 17.3401539, "Longitude": 78.5553072 }, "geometry": { "type": "Point", "coordinates": [ 78.5553072, 17.3401539 ] } },
{ "type": "Feature", "properties": { "Zone": "East", "Circle": "3B", "Location": "Sushma Theatre, HMDA Park ", "No. of Plants Planted": 230, "No. of Plants Survived": 190, "Latitude": 17.4967629, "Longitude": 78.427853 }, "geometry": { "type": "Point", "coordinates": [ 78.427853, 17.4967629 ] } },
{ "type": "Feature", "properties": { "Zone": "East", "Circle": "3B", "Location": "HMDA park open space Opp Jyothi Chicken", "No. of Plants Planted": 203, "No. of Plants Survived": 190, "Latitude": 17.4967629, "Longitude": 78.427853 }, "geometry": { "type": "Point", "coordinates": [ 78.427853, 17.4967629 ] } },
{ "type": "Feature", "properties": { "Zone": "East", "Circle": "3B", "Location": "RSS Ground", "No. of Plants Planted": 11, "No. of Plants Survived": 10, "Latitude": 17.3247181, "Longitude": 78.5647543 }, "geometry": { "type": "Point", "coordinates": [ 78.5647543, 17.3247181 ] } },
{ "type": "Feature", "properties": { "Zone": "East", "Circle": "3B", "Location": "Sai Tirumala Colony", "No. of Plants Planted": 66, "No. of Plants Survived": 59, "Latitude": 17.340551, "Longitude": 78.5532255 }, "geometry": { "type": "Point", "coordinates": [ 78.5532255, 17.340551 ] } },
{ "type": "Feature", "properties": { "Zone": "East", "Circle": "3B", "Location": "Tulja Bhavani Nagar", "No. of Plants Planted": 110, "No. of Plants Survived": 90, "Latitude": 17.3797981, "Longitude": 78.4370857 }, "geometry": { "type": "Point", "coordinates": [ 78.4370857, 17.3797981 ] } },
{ "type": "Feature", "properties": { "Zone": "East", "Circle": "3B", "Location": "Kasthuri Colony", "No. of Plants Planted": 92, "No. of Plants Survived": 87, "Latitude": 17.3322424, "Longitude": 78.5428647 }, "geometry": { "type": "Point", "coordinates": [ 78.5428647, 17.3322424 ] } },
{ "type": "Feature", "properties": { "Zone": "East", "Circle": "3B", "Location": "Kasthuri Colony Phase-II", "No. of Plants Planted": 25, "No. of Plants Survived": 21, "Latitude": 17.3361932, "Longitude": 78.5476049 }, "geometry": { "type": "Point", "coordinates": [ 78.5476049, 17.3361932 ] } },
{ "type": "Feature", "properties": { "Zone": "East", "Circle": "3B", "Location": "Kasthuri Colony (Community Hall)", "No. of Plants Planted": 9, "No. of Plants Survived": 8, "Latitude": 17.3668691, "Longitude": 78.5143572 }, "geometry": { "type": "Point", "coordinates": [ 78.5143572, 17.3668691 ] } },
{ "type": "Feature", "properties": { "Zone": "East", "Circle": "3B", "Location": "Satyadeva Nagar  - Phase - I", "No. of Plants Planted": 135, "No. of Plants Survived": 103, "Latitude": 17.4314855, "Longitude": 78.444493 }, "geometry": { "type": "Point", "coordinates": [ 78.444493, 17.4314855 ] } },
{ "type": "Feature", "properties": { "Zone": "East", "Circle": "3B", "Location": "Satyadeva Nagar - Phase II", "No. of Plants Planted": 70, "No. of Plants Survived": 55, "Latitude": 17.429403, "Longitude": 78.450215 }, "geometry": { "type": "Point", "coordinates": [ 78.450215, 17.429403 ] } },
{ "type": "Feature", "properties": { "Zone": "East", "Circle": "3B", "Location": "Satyadeva Nagar - Phase III", "No. of Plants Planted": 56, "No. of Plants Survived": 54, "Latitude": 17.429403, "Longitude": 78.450215 }, "geometry": { "type": "Point", "coordinates": [ 78.450215, 17.429403 ] } },
{ "type": "Feature", "properties": { "Zone": "East", "Circle": "3B", "Location": "Indraprastha Colony, BIT - I, Karmanghat (V)", "No. of Plants Planted": 34, "No. of Plants Survived": 24, "Latitude": 17.3702871, "Longitude": 78.5750814 }, "geometry": { "type": "Point", "coordinates": [ 78.5750814, 17.3702871 ] } },
{ "type": "Feature", "properties": { "Zone": "East", "Circle": "3B", "Location": "Indraprastha Colony, BIT - III, Karmanghat (V)", "No. of Plants Planted": 50, "No. of Plants Survived": 40, "Latitude": 17.3702871, "Longitude": 78.5750814 }, "geometry": { "type": "Point", "coordinates": [ 78.5750814, 17.3702871 ] } },
{ "type": "Feature", "properties": { "Zone": "East", "Circle": "3B", "Location": "Gokul Enclave, Karmanghat", "No. of Plants Planted": 38, "No. of Plants Survived": 24, "Latitude": 17.3417201, "Longitude": 78.5374859 }, "geometry": { "type": "Point", "coordinates": [ 78.5374859, 17.3417201 ] } },
{ "type": "Feature", "properties": { "Zone": "East", "Circle": "3B", "Location": "Nandavanam Grave Yard (Bupesh Gupta)", "No. of Plants Planted": 300, "No. of Plants Survived": 295, "Latitude": 17.385044, "Longitude": 78.486671 }, "geometry": { "type": "Point", "coordinates": [ 78.486671, 17.385044 ] } },
{ "type": "Feature", "properties": { "Zone": "East", "Circle": "3B", "Location": "Kranthi Nagar Colony, Street No.2, Karmanghat", "No. of Plants Planted": 50, "No. of Plants Survived": 47, "Latitude": 17.3461276, "Longitude": 78.5320756 }, "geometry": { "type": "Point", "coordinates": [ 78.5320756, 17.3461276 ] } },
{ "type": "Feature", "properties": { "Zone": "East", "Circle": "3B", "Location": "Champapet Temple Ground", "No. of Plants Planted": 70, "No. of Plants Survived": 61, "Latitude": 17.3447337, "Longitude": 78.5182911 }, "geometry": { "type": "Point", "coordinates": [ 78.5182911, 17.3447337 ] } },
{ "type": "Feature", "properties": { "Zone": "East", "Circle": "3B", "Location": "Grave yard lingojiguda, KARMANGHAT", "No. of Plants Planted": 100, "No. of Plants Survived": 70, "Latitude": 17.3433152, "Longitude": 78.5372492 }, "geometry": { "type": "Point", "coordinates": [ 78.5372492, 17.3433152 ] } },
{ "type": "Feature", "properties": { "Zone": "East", "Circle": "3B", "Location": "Brindhavan Colony (Open Space)", "No. of Plants Planted": 60, "No. of Plants Survived": 55, "Latitude": 17.5027199, "Longitude": 78.3881374 }, "geometry": { "type": "Point", "coordinates": [ 78.3881374, 17.5027199 ] } },
{ "type": "Feature", "properties": { "Zone": "East", "Circle": "3B", "Location": "Adikar Nagar Lingojiguda", "No. of Plants Planted": 30, "No. of Plants Survived": 27, "Latitude": 17.345803, "Longitude": 78.539157 }, "geometry": { "type": "Point", "coordinates": [ 78.539157, 17.345803 ] } },
{ "type": "Feature", "properties": { "Zone": "East", "Circle": "3B", "Location": "Bhagath singh Community, Karmanghat", "No. of Plants Planted": 47, "No. of Plants Survived": 43, "Latitude": 17.341442, "Longitude": 78.527272 }, "geometry": { "type": "Point", "coordinates": [ 78.527272, 17.341442 ] } },
{ "type": "Feature", "properties": { "Zone": "East", "Circle": "3C", "Location": "Victoria Memorial (Open Space)", "No. of Plants Planted": 202, "No. of Plants Survived": 192, "Latitude": 17.3614575, "Longitude": 78.541151 }, "geometry": { "type": "Point", "coordinates": [ 78.541151, 17.3614575 ] } },
{ "type": "Feature", "properties": { "Zone": "East", "Circle": "3C", "Location": "SBI Colony", "No. of Plants Planted": 43, "No. of Plants Survived": 38, "Latitude": 17.3676372, "Longitude": 78.5437251 }, "geometry": { "type": "Point", "coordinates": [ 78.5437251, 17.3676372 ] } },
{ "type": "Feature", "properties": { "Zone": "East", "Circle": "3C", "Location": "Bhagath singh Community near police quarters", "No. of Plants Planted": 80, "No. of Plants Survived": 62, "Latitude": 17.4552087, "Longitude": 78.4471297 }, "geometry": { "type": "Point", "coordinates": [ 78.4471297, 17.4552087 ] } },
{ "type": "Feature", "properties": { "Zone": "East", "Circle": "3C", "Location": "Indra Hills (Jaiswal Colony)", "No. of Plants Planted": 40, "No. of Plants Survived": 34, "Latitude": 17.5052615, "Longitude": 78.4005751 }, "geometry": { "type": "Point", "coordinates": [ 78.4005751, 17.5052615 ] } },
{ "type": "Feature", "properties": { "Zone": "East", "Circle": "3C", "Location": "cheruvu thota , Colony Ground, Sarornagar", "No. of Plants Planted": 70, "No. of Plants Survived": 45, "Latitude": 17.4928957, "Longitude": 78.3999975 }, "geometry": { "type": "Point", "coordinates": [ 78.3999975, 17.4928957 ] } },
{ "type": "Feature", "properties": { "Zone": "East", "Circle": "3C", "Location": "Sai Krishna", "No. of Plants Planted": 25, "No. of Plants Survived": 23, "Latitude": 17.404645, "Longitude": 78.463946 }, "geometry": { "type": "Point", "coordinates": [ 78.463946, 17.404645 ] } },
{ "type": "Feature", "properties": { "Zone": "East", "Circle": "3C", "Location": "Bhagath Singh Nagar Grave Yard", "No. of Plants Planted": 290, "No. of Plants Survived": 265, "Latitude": 17.4167563, "Longitude": 78.3951433 }, "geometry": { "type": "Point", "coordinates": [ 78.3951433, 17.4167563 ] } },
{ "type": "Feature", "properties": { "Zone": "East", "Circle": "3C", "Location": "Victoria Memorial (Open Space)", "No. of Plants Planted": 1017, "No. of Plants Survived": 998, "Latitude": 17.3614575, "Longitude": 78.541151 }, "geometry": { "type": "Point", "coordinates": [ 78.541151, 17.3614575 ] } },
{ "type": "Feature", "properties": { "Zone": "East", "Circle": "3C", "Location": "Sy.No.9, Yadav Nagar, RK Puram, Saroornagar", "No. of Plants Planted": 50, "No. of Plants Survived": 39, "Latitude": 17.3581788, "Longitude": 78.539168 }, "geometry": { "type": "Point", "coordinates": [ 78.539168, 17.3581788 ] } },
{ "type": "Feature", "properties": { "Zone": "East", "Circle": "3C", "Location": "Sy.No.9\/1, Alkapuri, Community Hall, Saroornagar", "No. of Plants Planted": 48, "No. of Plants Survived": 20, "Latitude": 17.3667586, "Longitude": 78.5523782 }, "geometry": { "type": "Point", "coordinates": [ 78.5523782, 17.3667586 ] } },
{ "type": "Feature", "properties": { "Zone": "East", "Circle": "3C", "Location": "SRL Colony (Temple Area)", "No. of Plants Planted": 36, "No. of Plants Survived": 34, "Latitude": 17.3673864, "Longitude": 78.5382008 }, "geometry": { "type": "Point", "coordinates": [ 78.5382008, 17.3673864 ] } },
{ "type": "Feature", "properties": { "Zone": "East", "Circle": "3C", "Location": "Satya nagar Temple", "No. of Plants Planted": 56, "No. of Plants Survived": 42, "Latitude": 17.3417201, "Longitude": 78.5374859 }, "geometry": { "type": "Point", "coordinates": [ 78.5374859, 17.3417201 ] } },
{ "type": "Feature", "properties": { "Zone": "East", "Circle": "3C", "Location": "Satya nagar grave yard", "No. of Plants Planted": 277, "No. of Plants Survived": 272, "Latitude": 17.3812076, "Longitude": 78.5454999 }, "geometry": { "type": "Point", "coordinates": [ 78.5454999, 17.3812076 ] } },
{ "type": "Feature", "properties": { "Zone": "East", "Circle": "3C", "Location": "Prabhatnagar  Colony", "No. of Plants Planted": 90, "No. of Plants Survived": 82, "Latitude": 17.3723229, "Longitude": 78.5366256 }, "geometry": { "type": "Point", "coordinates": [ 78.5366256, 17.3723229 ] } },
{ "type": "Feature", "properties": { "Zone": "East", "Circle": "3C", "Location": "Vikas Nagar  Colony", "No. of Plants Planted": 15, "No. of Plants Survived": 13, "Latitude": 17.3717894, "Longitude": 78.5273956 }, "geometry": { "type": "Point", "coordinates": [ 78.5273956, 17.3717894 ] } },
{ "type": "Feature", "properties": { "Zone": "East", "Circle": "3C", "Location": "Ramalayam Temple Back Side (Graveyard)", "No. of Plants Planted": 60, "No. of Plants Survived": 52, "Latitude": 17.2572071, "Longitude": 78.3453217 }, "geometry": { "type": "Point", "coordinates": [ 78.3453217, 17.2572071 ] } },
{ "type": "Feature", "properties": { "Zone": "East", "Circle": "3C", "Location": "Vivekanandha Grave yard , Near BusStop", "No. of Plants Planted": 140, "No. of Plants Survived": 63, "Latitude": 17.4906525, "Longitude": 78.4074417 }, "geometry": { "type": "Point", "coordinates": [ 78.4074417, 17.4906525 ] } },
{ "type": "Feature", "properties": { "Zone": "South", "Circle": "4", "Location": "DRDL", "No. of Plants Planted": 9000, "No. of Plants Survived": 8550, "Latitude": 17.237397, "Longitude": 78.5049963 }, "geometry": { "type": "Point", "coordinates": [ 78.5049963, 17.237397 ] } },
{ "type": "Feature", "properties": { "Zone": "South", "Circle": "4", "Location": "Midhani", "No. of Plants Planted": 4000, "No. of Plants Survived": 3680, "Latitude": 17.3196492, "Longitude": 78.5187235 }, "geometry": { "type": "Point", "coordinates": [ 78.5187235, 17.3196492 ] } },
{ "type": "Feature", "properties": { "Zone": "South", "Circle": "5", "Location": "Moosi. Opp. High Court", "No. of Plants Planted": 500, "No. of Plants Survived": 480, "Latitude": 17.3693883, "Longitude": 78.4734184 }, "geometry": { "type": "Point", "coordinates": [ 78.4734184, 17.3693883 ] } },
{ "type": "Feature", "properties": { "Zone": "South", "Circle": "5", "Location": "Moosi. Opp. Osmania", "No. of Plants Planted": 1053, "No. of Plants Survived": 1000, "Latitude": 17.3829665, "Longitude": 78.4822545 }, "geometry": { "type": "Point", "coordinates": [ 78.4822545, 17.3829665 ] } },
{ "type": "Feature", "properties": { "Zone": "South", "Circle": "5", "Location": "Quli Qutub shah polytechnic college", "No. of Plants Planted": 1197, "No. of Plants Survived": 1113, "Latitude": 17.3515124, "Longitude": 78.4571148 }, "geometry": { "type": "Point", "coordinates": [ 78.4571148, 17.3515124 ] } },
{ "type": "Feature", "properties": { "Zone": "South", "Circle": "5", "Location": "High Court primeses", "No. of Plants Planted": 250, "No. of Plants Survived": 247, "Latitude": 17.3691603, "Longitude": 78.4721034 }, "geometry": { "type": "Point", "coordinates": [ 78.4721034, 17.3691603 ] } },
{ "type": "Feature", "properties": { "Zone": "South", "Circle": "6", "Location": "Sangam project along the Moosi river", "No. of Plants Planted": 1000, "No. of Plants Survived": 510, "Latitude": 17.385044, "Longitude": 78.486671 }, "geometry": { "type": "Point", "coordinates": [ 78.486671, 17.385044 ] } },
{ "type": "Feature", "properties": { "Zone": "South", "Circle": "6", "Location": "Laxmiguda Bit-I", "No. of Plants Planted": 2800, "No. of Plants Survived": 1344, "Latitude": 17.3055953, "Longitude": 78.4485176 }, "geometry": { "type": "Point", "coordinates": [ 78.4485176, 17.3055953 ] } },
{ "type": "Feature", "properties": { "Zone": "South", "Circle": "6", "Location": "Laxmiguda Bit-II", "No. of Plants Planted": 2200, "No. of Plants Survived": 2134, "Latitude": 17.3055953, "Longitude": 78.4485176 }, "geometry": { "type": "Point", "coordinates": [ 78.4485176, 17.3055953 ] } },
{ "type": "Feature", "properties": { "Zone": "South", "Circle": "6", "Location": "Kantareddy Kunta", "No. of Plants Planted": 270, "No. of Plants Survived": 259, "Latitude": 17.3612503, "Longitude": 78.4336275 }, "geometry": { "type": "Point", "coordinates": [ 78.4336275, 17.3612503 ] } },
{ "type": "Feature", "properties": { "Zone": "South", "Circle": "6", "Location": "Peddatalakunta", "No. of Plants Planted": 500, "No. of Plants Survived": 490, "Latitude": 17.385044, "Longitude": 78.486671 }, "geometry": { "type": "Point", "coordinates": [ 78.486671, 17.385044 ] } },
{ "type": "Feature", "properties": { "Zone": "South", "Circle": "6", "Location": "Green walk ways", "No. of Plants Planted": 250, "No. of Plants Survived": 245, "Latitude": 17.3199413, "Longitude": 78.3895111 }, "geometry": { "type": "Point", "coordinates": [ 78.3895111, 17.3199413 ] } },
{ "type": "Feature", "properties": { "Zone": "South", "Circle": "6", "Location": "Prof. Jayashankar  Agricultural University (Students Farm)", "No. of Plants Planted": 9000, "No. of Plants Survived": 8550, "Latitude": 17.3226269, "Longitude": 78.4175444 }, "geometry": { "type": "Point", "coordinates": [ 78.4175444, 17.3226269 ] } },
{ "type": "Feature", "properties": { "Zone": "South", "Circle": "6", "Location": "Prof. Jayashankar  Agricultural University (International Hostel)", "No. of Plants Planted": 3000, "No. of Plants Survived": 2880, "Latitude": 17.3226269, "Longitude": 78.4175444 }, "geometry": { "type": "Point", "coordinates": [ 78.4175444, 17.3226269 ] } },
{ "type": "Feature", "properties": { "Zone": "South", "Circle": "6", "Location": "Krishna Nagar", "No. of Plants Planted": 3100, "No. of Plants Survived": 3007, "Latitude": 17.4305565, "Longitude": 78.4270534 }, "geometry": { "type": "Point", "coordinates": [ 78.4270534, 17.4305565 ] } },
{ "type": "Feature", "properties": { "Zone": "South", "Circle": "6", "Location": "TSIPARD", "No. of Plants Planted": 8000, "No. of Plants Survived": 7760, "Latitude": 17.3167195, "Longitude": 78.4021876 }, "geometry": { "type": "Point", "coordinates": [ 78.4021876, 17.3167195 ] } },
{ "type": "Feature", "properties": { "Zone": "South", "Circle": "6", "Location": "TSIPARD, MDO Office", "No. of Plants Planted": 1000, "No. of Plants Survived": 960, "Latitude": 17.3167195, "Longitude": 78.4021876 }, "geometry": { "type": "Point", "coordinates": [ 78.4021876, 17.3167195 ] } },
{ "type": "Feature", "properties": { "Zone": "Central", "Circle": "7A", "Location": "Jeevan Kalyan Nagar Park", "No. of Plants Planted": 50, "No. of Plants Survived": 36, "Latitude": 17.443478, "Longitude": 78.4329743 }, "geometry": { "type": "Point", "coordinates": [ 78.4329743, 17.443478 ] } },
{ "type": "Feature", "properties": { "Zone": "Central", "Circle": "7A", "Location": "HUDA Park", "No. of Plants Planted": 50, "No. of Plants Survived": 41, "Latitude": 17.3634567, "Longitude": 78.5375131 }, "geometry": { "type": "Point", "coordinates": [ 78.5375131, 17.3634567 ] } },
{ "type": "Feature", "properties": { "Zone": "Central", "Circle": "7A", "Location": "Red Hills Park", "No. of Plants Planted": 40, "No. of Plants Survived": 40, "Latitude": 17.3971769, "Longitude": 78.4649536 }, "geometry": { "type": "Point", "coordinates": [ 78.4649536, 17.3971769 ] } },
{ "type": "Feature", "properties": { "Zone": "Central", "Circle": "7A", "Location": "Cha Cha Nehru Park", "No. of Plants Planted": 220, "No. of Plants Survived": 198, "Latitude": 17.4018253, "Longitude": 78.451559 }, "geometry": { "type": "Point", "coordinates": [ 78.451559, 17.4018253 ] } },
{ "type": "Feature", "properties": { "Zone": "Central", "Circle": "7A", "Location": "Verternary Bioligical Research Institute", "No. of Plants Planted": 1900, "No. of Plants Survived": 1792, "Latitude": 17.401121, "Longitude": 78.4556491 }, "geometry": { "type": "Point", "coordinates": [ 78.4556491, 17.401121 ] } },
{ "type": "Feature", "properties": { "Zone": "Central", "Circle": "7A", "Location": "Kailasagiri Grave Yard, Vijayanagar Colony", "No. of Plants Planted": 160, "No. of Plants Survived": 148, "Latitude": 17.3947768, "Longitude": 78.4531696 }, "geometry": { "type": "Point", "coordinates": [ 78.4531696, 17.3947768 ] } },
{ "type": "Feature", "properties": { "Zone": "Central", "Circle": "7A", "Location": "Vijayanagar Colony tree  park-I & II", "No. of Plants Planted": 40, "No. of Plants Survived": 35, "Latitude": 17.3947768, "Longitude": 78.4531696 }, "geometry": { "type": "Point", "coordinates": [ 78.4531696, 17.3947768 ] } },
{ "type": "Feature", "properties": { "Zone": "Central", "Circle": "7A", "Location": "Bojagutta", "No. of Plants Planted": 30, "No. of Plants Survived": 9, "Latitude": 17.3879669, "Longitude": 78.4321743 }, "geometry": { "type": "Point", "coordinates": [ 78.4321743, 17.3879669 ] } },
{ "type": "Feature", "properties": { "Zone": "Central", "Circle": "7A", "Location": "Mallepally  Bharath grounds", "No. of Plants Planted": 40, "No. of Plants Survived": 25, "Latitude": 17.3912732, "Longitude": 78.4601861 }, "geometry": { "type": "Point", "coordinates": [ 78.4601861, 17.3912732 ] } },
{ "type": "Feature", "properties": { "Zone": "Central", "Circle": "7A", "Location": "ITI Mallepally", "No. of Plants Planted": 600, "No. of Plants Survived": 395, "Latitude": 17.3963744, "Longitude": 78.4564282 }, "geometry": { "type": "Point", "coordinates": [ 78.4564282, 17.3963744 ] } },
{ "type": "Feature", "properties": { "Zone": "Central", "Circle": "7A", "Location": "Nandinagar Colony Park", "No. of Plants Planted": 50, "No. of Plants Survived": 30, "Latitude": 17.429809, "Longitude": 78.439673 }, "geometry": { "type": "Point", "coordinates": [ 78.439673, 17.429809 ] } },
{ "type": "Feature", "properties": { "Zone": "Central", "Circle": "7B", "Location": "Kakatiyanagar colony park", "No. of Plants Planted": 40, "No. of Plants Survived": 38, "Latitude": 17.4425859, "Longitude": 78.4735011 }, "geometry": { "type": "Point", "coordinates": [ 78.4735011, 17.4425859 ] } },
{ "type": "Feature", "properties": { "Zone": "Central", "Circle": "7B", "Location": "Alhasnath Nagar Colony Park", "No. of Plants Planted": 40, "No. of Plants Survived": 32, "Latitude": 17.3987744, "Longitude": 78.4219005 }, "geometry": { "type": "Point", "coordinates": [ 78.4219005, 17.3987744 ] } },
{ "type": "Feature", "properties": { "Zone": "Central", "Circle": "7B", "Location": "Shivalal Community Hall", "No. of Plants Planted": 20, "No. of Plants Survived": 20, "Latitude": 17.3749058, "Longitude": 78.4556565 }, "geometry": { "type": "Point", "coordinates": [ 78.4556565, 17.3749058 ] } },
{ "type": "Feature", "properties": { "Zone": "Central", "Circle": "7B", "Location": "Raheempura, play ground", "No. of Plants Planted": null, "No. of Plants Survived": null, "Latitude": 17.3711571, "Longitude": 78.4569 }, "geometry": { "type": "Point", "coordinates": [ 78.4569, 17.3711571 ] } },
{ "type": "Feature", "properties": { "Zone": "Central", "Circle": "7B", "Location": "Pensionpura", "No. of Plants Planted": 20, "No. of Plants Survived": 12, "Latitude": 17.3811411, "Longitude": 78.4190573 }, "geometry": { "type": "Point", "coordinates": [ 78.4190573, 17.3811411 ] } },
{ "type": "Feature", "properties": { "Zone": "Central", "Circle": "7B", "Location": "Transfer Station", "No. of Plants Planted": 100, "No. of Plants Survived": 43, "Latitude": 17.373288, "Longitude": 78.4941626 }, "geometry": { "type": "Point", "coordinates": [ 78.4941626, 17.373288 ] } },
{ "type": "Feature", "properties": { "Zone": "Central", "Circle": "7B", "Location": "Moghalnagar 'B'", "No. of Plants Planted": 100, "No. of Plants Survived": 85, "Latitude": 17.3786655, "Longitude": 78.4296115 }, "geometry": { "type": "Point", "coordinates": [ 78.4296115, 17.3786655 ] } },
{ "type": "Feature", "properties": { "Zone": "Central", "Circle": "7B", "Location": "Ambekdar ward office, Dattreyanagar", "No. of Plants Planted": 40, "No. of Plants Survived": 30, "Latitude": 17.3711571, "Longitude": 78.4569 }, "geometry": { "type": "Point", "coordinates": [ 78.4569, 17.3711571 ] } },
{ "type": "Feature", "properties": { "Zone": "Central", "Circle": "7B", "Location": "Panipuri karwan hospital and school", "No. of Plants Planted": 40, "No. of Plants Survived": 18, "Latitude": 17.385044, "Longitude": 78.486671 }, "geometry": { "type": "Point", "coordinates": [ 78.486671, 17.385044 ] } },
{ "type": "Feature", "properties": { "Zone": "Central", "Circle": "7B", "Location": "Golconda Ward office", "No. of Plants Planted": 20, "No. of Plants Survived": 15, "Latitude": 17.385998, "Longitude": 78.440031 }, "geometry": { "type": "Point", "coordinates": [ 78.440031, 17.385998 ] } },
{ "type": "Feature", "properties": { "Zone": "Central", "Circle": "7B", "Location": "Bahisht - F- Batoor (Golf course  opposite) grave yard", "No. of Plants Planted": 400, "No. of Plants Survived": 280, "Latitude": 17.3909428, "Longitude": 78.4097299 }, "geometry": { "type": "Point", "coordinates": [ 78.4097299, 17.3909428 ] } },
{ "type": "Feature", "properties": { "Zone": "Central", "Circle": "7B", "Location": "Salarjung nagar colony park", "No. of Plants Planted": 40, "No. of Plants Survived": 28, "Latitude": 17.4386522, "Longitude": 78.4818837 }, "geometry": { "type": "Point", "coordinates": [ 78.4818837, 17.4386522 ] } },
{ "type": "Feature", "properties": { "Zone": "Central", "Circle": "8", "Location": "Osmaina Medical College, Koti", "No. of Plants Planted": 100, "No. of Plants Survived": 80, "Latitude": 17.3822473, "Longitude": 78.4828573 }, "geometry": { "type": "Point", "coordinates": [ 78.4828573, 17.3822473 ] } },
{ "type": "Feature", "properties": { "Zone": "Central", "Circle": "8", "Location": "Nizam College", "No. of Plants Planted": 100, "No. of Plants Survived": 90, "Latitude": 17.3977489, "Longitude": 78.4759695 }, "geometry": { "type": "Point", "coordinates": [ 78.4759695, 17.3977489 ] } },
{ "type": "Feature", "properties": { "Zone": "Central", "Circle": "9A", "Location": "Musheerabad Valley ball  Play ground", "No. of Plants Planted": 20, "No. of Plants Survived": 15, "Latitude": 17.4203994, "Longitude": 78.5018574 }, "geometry": { "type": "Point", "coordinates": [ 78.5018574, 17.4203994 ] } },
{ "type": "Feature", "properties": { "Zone": "Central", "Circle": "9A", "Location": "Adikmet Thopkunta open space", "No. of Plants Planted": 66, "No. of Plants Survived": 45, "Latitude": 17.4046741, "Longitude": 78.5107083 }, "geometry": { "type": "Point", "coordinates": [ 78.5107083, 17.4046741 ] } },
{ "type": "Feature", "properties": { "Zone": "Central", "Circle": "9A", "Location": "Mother Dairy Park", "No. of Plants Planted": 50, "No. of Plants Survived": 30, "Latitude": 17.396544, "Longitude": 78.509429 }, "geometry": { "type": "Point", "coordinates": [ 78.509429, 17.396544 ] } },
{ "type": "Feature", "properties": { "Zone": "Central", "Circle": "9A", "Location": "Jawarharnagar ward office", "No. of Plants Planted": 25, "No. of Plants Survived": 15, "Latitude": 17.456102, "Longitude": 78.4221401 }, "geometry": { "type": "Point", "coordinates": [ 78.4221401, 17.456102 ] } },
{ "type": "Feature", "properties": { "Zone": "Central", "Circle": "9A", "Location": "Indira Park", "No. of Plants Planted": 115, "No. of Plants Survived": 115, "Latitude": 17.4139694, "Longitude": 78.4839721 }, "geometry": { "type": "Point", "coordinates": [ 78.4839721, 17.4139694 ] } },
{ "type": "Feature", "properties": { "Zone": "Central", "Circle": "9A", "Location": "Chikkadpally, Peoples park", "No. of Plants Planted": 20, "No. of Plants Survived": 20, "Latitude": 17.4049063, "Longitude": 78.4936556 }, "geometry": { "type": "Point", "coordinates": [ 78.4936556, 17.4049063 ] } },
{ "type": "Feature", "properties": { "Zone": "Central", "Circle": "9A", "Location": "Sundariah Park", "No. of Plants Planted": 30, "No. of Plants Survived": 30, "Latitude": 17.3981978, "Longitude": 78.4976538 }, "geometry": { "type": "Point", "coordinates": [ 78.4976538, 17.3981978 ] } },
{ "type": "Feature", "properties": { "Zone": "Central", "Circle": "9A", "Location": "Padma colony", "No. of Plants Planted": 20, "No. of Plants Survived": 18, "Latitude": 17.3992072, "Longitude": 78.5043167 }, "geometry": { "type": "Point", "coordinates": [ 78.5043167, 17.3992072 ] } },
{ "type": "Feature", "properties": { "Zone": "Central", "Circle": "9A", "Location": "Bank of Baroda Colony park", "No. of Plants Planted": 20, "No. of Plants Survived": 18, "Latitude": 17.4149675, "Longitude": 78.4950114 }, "geometry": { "type": "Point", "coordinates": [ 78.4950114, 17.4149675 ] } },
{ "type": "Feature", "properties": { "Zone": "Central", "Circle": "9A", "Location": "SRT Ramnagar Colony Park", "No. of Plants Planted": 45, "No. of Plants Survived": 45, "Latitude": 17.3567564, "Longitude": 78.4936348 }, "geometry": { "type": "Point", "coordinates": [ 78.4936348, 17.3567564 ] } },
{ "type": "Feature", "properties": { "Zone": "Central", "Circle": "9B", "Location": "SBI Colony Park", "No. of Plants Planted": 24, "No. of Plants Survived": 24, "Latitude": 17.370578, "Longitude": 78.5462442 }, "geometry": { "type": "Point", "coordinates": [ 78.5462442, 17.370578 ] } },
{ "type": "Feature", "properties": { "Zone": "Central", "Circle": "9B", "Location": "Lingampally ward office park", "No. of Plants Planted": 46, "No. of Plants Survived": 26, "Latitude": 17.450415, "Longitude": 78.3810947 }, "geometry": { "type": "Point", "coordinates": [ 78.3810947, 17.450415 ] } },
{ "type": "Feature", "properties": { "Zone": "Central", "Circle": "9B", "Location": "CESSS Colony Park-II", "No. of Plants Planted": 20, "No. of Plants Survived": 20, "Latitude": 17.4417056, "Longitude": 78.3559107 }, "geometry": { "type": "Point", "coordinates": [ 78.3559107, 17.4417056 ] } },
{ "type": "Feature", "properties": { "Zone": "Central", "Circle": "9B", "Location": "Tulasinagar Colony park", "No. of Plants Planted": 20, "No. of Plants Survived": 20, "Latitude": 17.3893177, "Longitude": 78.5079564 }, "geometry": { "type": "Point", "coordinates": [ 78.5079564, 17.3893177 ] } },
{ "type": "Feature", "properties": { "Zone": "Central", "Circle": "9B", "Location": "Naryanguda Grave Yard", "No. of Plants Planted": 140, "No. of Plants Survived": 120, "Latitude": 17.3962942, "Longitude": 78.4854947 }, "geometry": { "type": "Point", "coordinates": [ 78.4854947, 17.3962942 ] } },
{ "type": "Feature", "properties": { "Zone": "Central", "Circle": "9B", "Location": "Osmaina University", "No. of Plants Planted": 3900, "No. of Plants Survived": 2500, "Latitude": 17.413502, "Longitude": 78.5287355 }, "geometry": { "type": "Point", "coordinates": [ 78.5287355, 17.413502 ] } },
{ "type": "Feature", "properties": { "Zone": "Central", "Circle": "9B", "Location": "Oil Seed Colony Park", "No. of Plants Planted": 20, "No. of Plants Survived": 17, "Latitude": 17.385044, "Longitude": 78.486671 }, "geometry": { "type": "Point", "coordinates": [ 78.486671, 17.385044 ] } },
{ "type": "Feature", "properties": { "Zone": "Central", "Circle": "9B", "Location": "Nehru Nagar play ground", "No. of Plants Planted": 40, "No. of Plants Survived": 20, "Latitude": 17.381046, "Longitude": 78.4905896 }, "geometry": { "type": "Point", "coordinates": [ 78.4905896, 17.381046 ] } },
{ "type": "Feature", "properties": { "Zone": "Central", "Circle": "9B", "Location": "Green Lands Hotel", "No. of Plants Planted": 46, "No. of Plants Survived": 30, "Latitude": 17.366254, "Longitude": 78.497622 }, "geometry": { "type": "Point", "coordinates": [ 78.497622, 17.366254 ] } },
{ "type": "Feature", "properties": { "Zone": "Central", "Circle": "9B", "Location": "Bagh Amberpet grave yard, DD colony", "No. of Plants Planted": 144, "No. of Plants Survived": 100, "Latitude": 17.3982438, "Longitude": 78.5196922 }, "geometry": { "type": "Point", "coordinates": [ 78.5196922, 17.3982438 ] } },
{ "type": "Feature", "properties": { "Zone": "Central", "Circle": "9B", "Location": "Indraprastha Colony Park-I", "No. of Plants Planted": 20, "No. of Plants Survived": 10, "Latitude": 17.340672, "Longitude": 78.5847889 }, "geometry": { "type": "Point", "coordinates": [ 78.5847889, 17.340672 ] } },
{ "type": "Feature", "properties": { "Zone": "Central", "Circle": "9B", "Location": "Indraprastha Colony Park-II", "No. of Plants Planted": 40, "No. of Plants Survived": 35, "Latitude": 17.4417056, "Longitude": 78.3559107 }, "geometry": { "type": "Point", "coordinates": [ 78.3559107, 17.4417056 ] } },
{ "type": "Feature", "properties": { "Zone": "Central", "Circle": "9B", "Location": "Lingalagadda tree park", "No. of Plants Planted": 20, "No. of Plants Survived": 15, "Latitude": 17.3960004, "Longitude": 78.5105656 }, "geometry": { "type": "Point", "coordinates": [ 78.5105656, 17.3960004 ] } },
{ "type": "Feature", "properties": { "Zone": "Central", "Circle": "9B", "Location": "Saraswathinagar Colony Park", "No. of Plants Planted": 25, "No. of Plants Survived": 25, "Latitude": 17.3561987, "Longitude": 78.5205612 }, "geometry": { "type": "Point", "coordinates": [ 78.5205612, 17.3561987 ] } },
{ "type": "Feature", "properties": { "Zone": "Central", "Circle": "9B", "Location": "Avanthinagar Colony Park", "No. of Plants Planted": 20, "No. of Plants Survived": 20, "Latitude": 17.3850718, "Longitude": 78.438911 }, "geometry": { "type": "Point", "coordinates": [ 78.438911, 17.3850718 ] } },
{ "type": "Feature", "properties": { "Zone": "Central", "Circle": "9B", "Location": "CESSS Colony Park-I", "No. of Plants Planted": 30, "No. of Plants Survived": 30, "Latitude": 17.429809, "Longitude": 78.439673 }, "geometry": { "type": "Point", "coordinates": [ 78.439673, 17.429809 ] } },
{ "type": "Feature", "properties": { "Zone": "Central", "Circle": "9B", "Location": "Ramakrishnagar colony park", "No. of Plants Planted": 20, "No. of Plants Survived": 20, "Latitude": 17.4921251, "Longitude": 78.4101571 }, "geometry": { "type": "Point", "coordinates": [ 78.4101571, 17.4921251 ] } },
{ "type": "Feature", "properties": { "Zone": "Central", "Circle": "10A", "Location": "Rajiv Nagar Colony", "No. of Plants Planted": 88, "No. of Plants Survived": 88, "Latitude": 17.5248736, "Longitude": 78.3689344 }, "geometry": { "type": "Point", "coordinates": [ 78.3689344, 17.5248736 ] } },
{ "type": "Feature", "properties": { "Zone": "Central", "Circle": "10A", "Location": "Krishnakanth park", "No. of Plants Planted": 268, "No. of Plants Survived": 268, "Latitude": 17.4400431, "Longitude": 78.4304685 }, "geometry": { "type": "Point", "coordinates": [ 78.4304685, 17.4400431 ] } },
{ "type": "Feature", "properties": { "Zone": "Central", "Circle": "10A", "Location": "Kalyan Nagar Venture III", "No. of Plants Planted": 300, "No. of Plants Survived": 290, "Latitude": 17.4510808, "Longitude": 78.4227694 }, "geometry": { "type": "Point", "coordinates": [ 78.4227694, 17.4510808 ] } },
{ "type": "Feature", "properties": { "Zone": "Central", "Circle": "10A", "Location": "SRT - 720, Sanathnagar", "No. of Plants Planted": 52, "No. of Plants Survived": 52, "Latitude": 17.4530259, "Longitude": 78.4457678 }, "geometry": { "type": "Point", "coordinates": [ 78.4457678, 17.4530259 ] } },
{ "type": "Feature", "properties": { "Zone": "Central", "Circle": "10A", "Location": "Nims Hospital", "No. of Plants Planted": 700, "No. of Plants Survived": 690, "Latitude": 17.422974, "Longitude": 78.454414 }, "geometry": { "type": "Point", "coordinates": [ 78.454414, 17.422974 ] } },
{ "type": "Feature", "properties": { "Zone": "Central", "Circle": "10A", "Location": "HPS Begumpet", "No. of Plants Planted": 4000, "No. of Plants Survived": 3762, "Latitude": 17.4441929, "Longitude": 78.4572966 }, "geometry": { "type": "Point", "coordinates": [ 78.4572966, 17.4441929 ] } },
{ "type": "Feature", "properties": { "Zone": "Central", "Circle": "10A", "Location": "Suprabathnagr", "No. of Plants Planted": 300, "No. of Plants Survived": 273, "Latitude": 17.385044, "Longitude": 78.486671 }, "geometry": { "type": "Point", "coordinates": [ 78.486671, 17.385044 ] } },
{ "type": "Feature", "properties": { "Zone": "Central", "Circle": "10A", "Location": "Sri Nagar Colony 'D' Park", "No. of Plants Planted": 88, "No. of Plants Survived": 88, "Latitude": 17.429809, "Longitude": 78.439673 }, "geometry": { "type": "Point", "coordinates": [ 78.439673, 17.429809 ] } },
{ "type": "Feature", "properties": { "Zone": "Central", "Circle": "10A", "Location": "Kamalapuri Colony park", "No. of Plants Planted": 200, "No. of Plants Survived": 200, "Latitude": 17.4292878, "Longitude": 78.4302517 }, "geometry": { "type": "Point", "coordinates": [ 78.4302517, 17.4292878 ] } },
{ "type": "Feature", "properties": { "Zone": "Central", "Circle": "10A", "Location": "Kundanbagh", "No. of Plants Planted": 200, "No. of Plants Survived": 192, "Latitude": 17.4345426, "Longitude": 78.4584121 }, "geometry": { "type": "Point", "coordinates": [ 78.4584121, 17.4345426 ] } },
{ "type": "Feature", "properties": { "Zone": "Central", "Circle": "10A", "Location": "Sanathnagar Welfare Centre", "No. of Plants Planted": 280, "No. of Plants Survived": 280, "Latitude": 17.4525506, "Longitude": 78.4444616 }, "geometry": { "type": "Point", "coordinates": [ 78.4444616, 17.4525506 ] } },
{ "type": "Feature", "properties": { "Zone": "Central", "Circle": "10A", "Location": "Sri Ram Nagar Colony Park I & II", "No. of Plants Planted": 91, "No. of Plants Survived": 91, "Latitude": 17.4088766, "Longitude": 78.4460912 }, "geometry": { "type": "Point", "coordinates": [ 78.4460912, 17.4088766 ] } },
{ "type": "Feature", "properties": { "Zone": "Central", "Circle": "10A", "Location": "Balkampet Grave Yard", "No. of Plants Planted": 80, "No. of Plants Survived": 80, "Latitude": 17.4308337, "Longitude": 78.4495937 }, "geometry": { "type": "Point", "coordinates": [ 78.4495937, 17.4308337 ] } },
{ "type": "Feature", "properties": { "Zone": "Central", "Circle": "10A", "Location": "Vaikuntadham Grave yard", "No. of Plants Planted": 80, "No. of Plants Survived": 80, "Latitude": 17.4167563, "Longitude": 78.3951433 }, "geometry": { "type": "Point", "coordinates": [ 78.3951433, 17.4167563 ] } },
{ "type": "Feature", "properties": { "Zone": "Central", "Circle": "10A", "Location": "Industrial Park, Sanathnagar", "No. of Plants Planted": 190, "No. of Plants Survived": 190, "Latitude": 17.4641638, "Longitude": 78.4446426 }, "geometry": { "type": "Point", "coordinates": [ 78.4446426, 17.4641638 ] } },
{ "type": "Feature", "properties": { "Zone": "Central", "Circle": "10A", "Location": "Borabanda Grave yard Site III", "No. of Plants Planted": 200, "No. of Plants Survived": 200, "Latitude": 17.4551842, "Longitude": 78.4171915 }, "geometry": { "type": "Point", "coordinates": [ 78.4171915, 17.4551842 ] } },
{ "type": "Feature", "properties": { "Zone": "Central", "Circle": "10A", "Location": "Neighbour Welfare park", "No. of Plants Planted": 50, "No. of Plants Survived": 50, "Latitude": 17.385044, "Longitude": 78.486671 }, "geometry": { "type": "Point", "coordinates": [ 78.486671, 17.385044 ] } },
{ "type": "Feature", "properties": { "Zone": "Central", "Circle": "10A", "Location": "Tankbund Way Side", "No. of Plants Planted": 300, "No. of Plants Survived": 300, "Latitude": 17.4235244, "Longitude": 78.487732 }, "geometry": { "type": "Point", "coordinates": [ 78.487732, 17.4235244 ] } },
{ "type": "Feature", "properties": { "Zone": "Central", "Circle": "10A", "Location": "Madhura Nagar Grave Yard", "No. of Plants Planted": 260, "No. of Plants Survived": 260, "Latitude": 17.4253193, "Longitude": 78.4464192 }, "geometry": { "type": "Point", "coordinates": [ 78.4464192, 17.4253193 ] } },
{ "type": "Feature", "properties": { "Zone": "Central", "Circle": "10A", "Location": "Sri Nagar Colony Grave Yard", "No. of Plants Planted": 200, "No. of Plants Survived": 195, "Latitude": 17.4303195, "Longitude": 78.4400342 }, "geometry": { "type": "Point", "coordinates": [ 78.4400342, 17.4303195 ] } },
{ "type": "Feature", "properties": { "Zone": "Central", "Circle": "10A", "Location": "Vanitha Welfare Park", "No. of Plants Planted": 55, "No. of Plants Survived": 55, "Latitude": 17.4235689, "Longitude": 78.4624721 }, "geometry": { "type": "Point", "coordinates": [ 78.4624721, 17.4235689 ] } },
{ "type": "Feature", "properties": { "Zone": "Central", "Circle": "10A", "Location": "Dilkusha Guest House", "No. of Plants Planted": 200, "No. of Plants Survived": 195, "Latitude": 17.419927, "Longitude": 78.4616071 }, "geometry": { "type": "Point", "coordinates": [ 78.4616071, 17.419927 ] } },
{ "type": "Feature", "properties": { "Zone": "Central", "Circle": "10A", "Location": "Ragava Enclave Open Space", "No. of Plants Planted": 44, "No. of Plants Survived": 44, "Latitude": 17.4488223, "Longitude": 78.3874889 }, "geometry": { "type": "Point", "coordinates": [ 78.3874889, 17.4488223 ] } },
{ "type": "Feature", "properties": { "Zone": "Central", "Circle": "10A", "Location": "Climber Garden", "No. of Plants Planted": 61, "No. of Plants Survived": 61, "Latitude": 17.385044, "Longitude": 78.486671 }, "geometry": { "type": "Point", "coordinates": [ 78.486671, 17.385044 ] } },
{ "type": "Feature", "properties": { "Zone": "Central", "Circle": "10A", "Location": "Pragathi Nagar Colony", "No. of Plants Planted": 25, "No. of Plants Survived": 25, "Latitude": 17.5186369, "Longitude": 78.3962529 }, "geometry": { "type": "Point", "coordinates": [ 78.3962529, 17.5186369 ] } },
{ "type": "Feature", "properties": { "Zone": "Central", "Circle": "10A", "Location": "S R Nagar EWS Open Space", "No. of Plants Planted": 50, "No. of Plants Survived": 50, "Latitude": 17.4436497, "Longitude": 78.4458259 }, "geometry": { "type": "Point", "coordinates": [ 78.4458259, 17.4436497 ] } },
{ "type": "Feature", "properties": { "Zone": "Central", "Circle": "10A", "Location": "Borabanda Site III", "No. of Plants Planted": 60, "No. of Plants Survived": 60, "Latitude": 17.4484297, "Longitude": 78.4099811 }, "geometry": { "type": "Point", "coordinates": [ 78.4099811, 17.4484297 ] } },
{ "type": "Feature", "properties": { "Zone": "Central", "Circle": "10A", "Location": "Venkataramana colony", "No. of Plants Planted": 20, "No. of Plants Survived": 20, "Latitude": 17.3339808, "Longitude": 78.5596971 }, "geometry": { "type": "Point", "coordinates": [ 78.5596971, 17.3339808 ] } },
{ "type": "Feature", "properties": { "Zone": "Central", "Circle": "10A", "Location": "Sanathnagar Nehru Park", "No. of Plants Planted": 92, "No. of Plants Survived": 92, "Latitude": 17.4548839, "Longitude": 78.4431326 }, "geometry": { "type": "Point", "coordinates": [ 78.4431326, 17.4548839 ] } },
{ "type": "Feature", "properties": { "Zone": "Central", "Circle": "10A", "Location": "Sanathnagar E Seva Back Side", "No. of Plants Planted": 15, "No. of Plants Survived": 15, "Latitude": 17.4542774, "Longitude": 78.4434881 }, "geometry": { "type": "Point", "coordinates": [ 78.4434881, 17.4542774 ] } },
{ "type": "Feature", "properties": { "Zone": "Central", "Circle": "10A", "Location": "Post Office Colony park", "No. of Plants Planted": 15, "No. of Plants Survived": 15, "Latitude": 17.5207177, "Longitude": 78.4446771 }, "geometry": { "type": "Point", "coordinates": [ 78.4446771, 17.5207177 ] } },
{ "type": "Feature", "properties": { "Zone": "Central", "Circle": "10A", "Location": "Gajjalamma Temple", "No. of Plants Planted": 15, "No. of Plants Survived": 15, "Latitude": 17.4099784, "Longitude": 78.4641929 }, "geometry": { "type": "Point", "coordinates": [ 78.4641929, 17.4099784 ] } },
{ "type": "Feature", "properties": { "Zone": "Central", "Circle": "10A", "Location": "SRT - 53, Sanathanagar", "No. of Plants Planted": 113, "No. of Plants Survived": 113, "Latitude": 17.454783, "Longitude": 78.4460853 }, "geometry": { "type": "Point", "coordinates": [ 78.4460853, 17.454783 ] } },
{ "type": "Feature", "properties": { "Zone": "Central", "Circle": "10A", "Location": "Khairathabad Govt. Degree College", "No. of Plants Planted": 50, "No. of Plants Survived": 50, "Latitude": 17.4104112, "Longitude": 78.4579311 }, "geometry": { "type": "Point", "coordinates": [ 78.4579311, 17.4104112 ] } },
{ "type": "Feature", "properties": { "Zone": "Central", "Circle": "10A", "Location": "Ni-MSME, Rahamath Nagar", "No. of Plants Planted": 1800, "No. of Plants Survived": 200, "Latitude": 17.4372205, "Longitude": 78.4251597 }, "geometry": { "type": "Point", "coordinates": [ 78.4251597, 17.4372205 ] } },
{ "type": "Feature", "properties": { "Zone": "Central", "Circle": "10A", "Location": "Naturecure Hospital Balkampet", "No. of Plants Planted": 70, "No. of Plants Survived": 70, "Latitude": 17.4447046, "Longitude": 78.4508673 }, "geometry": { "type": "Point", "coordinates": [ 78.4508673, 17.4447046 ] } },
{ "type": "Feature", "properties": { "Zone": "Central", "Circle": "10A", "Location": "Govt Hospital S R Nagar", "No. of Plants Planted": 100, "No. of Plants Survived": 100, "Latitude": 17.4415953, "Longitude": 78.4480403 }, "geometry": { "type": "Point", "coordinates": [ 78.4480403, 17.4415953 ] } },
{ "type": "Feature", "properties": { "Zone": "Central", "Circle": "10A", "Location": "Institute of health and family welfare center", "No. of Plants Planted": 50, "No. of Plants Survived": 50, "Latitude": 17.4438148, "Longitude": 78.436836 }, "geometry": { "type": "Point", "coordinates": [ 78.436836, 17.4438148 ] } },
{ "type": "Feature", "properties": { "Zone": "Central", "Circle": "10B", "Location": "Panchvathi park road no 3, Banjara Hills", "No. of Plants Planted": 60, "No. of Plants Survived": 58, "Latitude": 17.4257343, "Longitude": 78.4412828 }, "geometry": { "type": "Point", "coordinates": [ 78.4412828, 17.4257343 ] } },
{ "type": "Feature", "properties": { "Zone": "Central", "Circle": "10B", "Location": "Nyaya vihar park, Nyaya vihar complex, Road no 78, Jubilee Hills", "No. of Plants Planted": 15, "No. of Plants Survived": 15, "Latitude": 17.4171261, "Longitude": 78.4044946 }, "geometry": { "type": "Point", "coordinates": [ 78.4044946, 17.4171261 ] } },
{ "type": "Feature", "properties": { "Zone": "Central", "Circle": "10B", "Location": "Panjagutta grave yard", "No. of Plants Planted": 700, "No. of Plants Survived": 410, "Latitude": 17.4265589, "Longitude": 78.447084 }, "geometry": { "type": "Point", "coordinates": [ 78.447084, 17.4265589 ] } },
{ "type": "Feature", "properties": { "Zone": "Central", "Circle": "10B", "Location": "NBT Nagar, Road no 12, Banjara hills", "No. of Plants Planted": 25, "No. of Plants Survived": 20, "Latitude": 17.4090755, "Longitude": 78.4313261 }, "geometry": { "type": "Point", "coordinates": [ 78.4313261, 17.4090755 ] } },
{ "type": "Feature", "properties": { "Zone": "Central", "Circle": "10B", "Location": "Tata Capital, Journalist Colony", "No. of Plants Planted": 100, "No. of Plants Survived": 94, "Latitude": 17.4272417, "Longitude": 78.4459829 }, "geometry": { "type": "Point", "coordinates": [ 78.4459829, 17.4272417 ] } },
{ "type": "Feature", "properties": { "Zone": "Central", "Circle": "10B", "Location": "Ambedker nagar, shaikpet", "No. of Plants Planted": 180, "No. of Plants Survived": 170, "Latitude": 17.4127688, "Longitude": 78.3998642 }, "geometry": { "type": "Point", "coordinates": [ 78.3998642, 17.4127688 ] } },
{ "type": "Feature", "properties": { "Zone": "Central", "Circle": "10B", "Location": "MLA colony park, Road no 12, Banjara Hills", "No. of Plants Planted": 60, "No. of Plants Survived": 57, "Latitude": 17.4136091, "Longitude": 78.4206861 }, "geometry": { "type": "Point", "coordinates": [ 78.4206861, 17.4136091 ] } },
{ "type": "Feature", "properties": { "Zone": "Central", "Circle": "10B", "Location": "Road No 51 park", "No. of Plants Planted": 130, "No. of Plants Survived": 122, "Latitude": 17.4267183, "Longitude": 78.396056 }, "geometry": { "type": "Point", "coordinates": [ 78.396056, 17.4267183 ] } },
{ "type": "Feature", "properties": { "Zone": "Central", "Circle": "10B", "Location": "Vijaya co-op society, Road no 10, Jubilee Hills", "No. of Plants Planted": 14, "No. of Plants Survived": 14, "Latitude": 17.4075162, "Longitude": 78.3940358 }, "geometry": { "type": "Point", "coordinates": [ 78.3940358, 17.4075162 ] } },
{ "type": "Feature", "properties": { "Zone": "Central", "Circle": "10B", "Location": "Ramchandra rao colony park", "No. of Plants Planted": 80, "No. of Plants Survived": 76, "Latitude": 17.4068803, "Longitude": 78.4792981 }, "geometry": { "type": "Point", "coordinates": [ 78.4792981, 17.4068803 ] } },
{ "type": "Feature", "properties": { "Zone": "Central", "Circle": "10B", "Location": "Achaiah Lay out park", "No. of Plants Planted": 80, "No. of Plants Survived": 74, "Latitude": 17.350678, "Longitude": 78.4513068 }, "geometry": { "type": "Point", "coordinates": [ 78.4513068, 17.350678 ] } },
{ "type": "Feature", "properties": { "Zone": "Central", "Circle": "10B", "Location": "IAS & IPS Quarters Complex, Road no 10, Jubilee Hills", "No. of Plants Planted": 35, "No. of Plants Survived": 33, "Latitude": 17.4346279, "Longitude": 78.4142586 }, "geometry": { "type": "Point", "coordinates": [ 78.4142586, 17.4346279 ] } },
{ "type": "Feature", "properties": { "Zone": "Central", "Circle": "10B", "Location": "Aditya nagar colony park", "No. of Plants Planted": 30, "No. of Plants Survived": 28, "Latitude": 17.4000002, "Longitude": 78.4094168 }, "geometry": { "type": "Point", "coordinates": [ 78.4094168, 17.4000002 ] } },
{ "type": "Feature", "properties": { "Zone": "Central", "Circle": "10B", "Location": "Surya nagar colony", "No. of Plants Planted": 70, "No. of Plants Survived": 60, "Latitude": 17.399648, "Longitude": 78.4119492 }, "geometry": { "type": "Point", "coordinates": [ 78.4119492, 17.399648 ] } },
{ "type": "Feature", "properties": { "Zone": "Central", "Circle": "10B", "Location": "Park at near Obul reddy school, Road no 25, Jubilee Hills", "No. of Plants Planted": 192, "No. of Plants Survived": 183, "Latitude": 17.437991, "Longitude": 78.4096716 }, "geometry": { "type": "Point", "coordinates": [ 78.4096716, 17.437991 ] } },
{ "type": "Feature", "properties": { "Zone": "Central", "Circle": "10B", "Location": "Hindu grave yard, Road no 13, Banjara Hills", "No. of Plants Planted": 60, "No. of Plants Survived": 55, "Latitude": 17.4096492, "Longitude": 78.4472761 }, "geometry": { "type": "Point", "coordinates": [ 78.4472761, 17.4096492 ] } },
{ "type": "Feature", "properties": { "Zone": "West", "Circle": "11", "Location": "Vasantha Estates", "No. of Plants Planted": 427, "No. of Plants Survived": 406, "Latitude": 17.4768692, "Longitude": 78.3740708 }, "geometry": { "type": "Point", "coordinates": [ 78.3740708, 17.4768692 ] } },